{"type":"FeatureCollection","features":[{"type":"Feature","geometry":{"type":"Point","coordinates":[2.275725,48.865983]},"properties":{"stationcode":"16107","name":"Benjamin Godard - Victor Hugo","is_installed":"OUI","capacity":35,"numdocksavailable":24,"numbikesavailable":11,"mechanical":5,"ebike":6,"is_renting":"OUI","is_returning":"OUI","duedate":"2023-12-05T16:07:36+01:00","nom_arrondissement_communes":"Paris","code_insee_commune":null}},{"type":"Feature","geometry":{"type":"Point","coordinates":[2.3588666820200914,48.93626891059109]},"properties":{"stationcode":"32017","name":"Basilique","is_installed":"OUI","capacity":22,"numdocksavailable":11,"numbikesavailable":9,"mechanical":6,"ebike":3,"is_renting":"OUI","is_returning":"OUI","duedate":"2023-12-05T16:06:18+01:00","nom_arrondissement_communes":"Saint-Denis","code_insee_commune":null}},{"type":"Feature","geometry":{"type":"Point","coordinates":[2.4865807592869,48.871256519012]},"properties":{"stationcode":"31104","name":"Mairie de Rosny-sous-Bois","is_installed":"OUI","capacity":30,"numdocksavailable":14,"numbikesavailable":15,"mechanical":4,"ebike":11,"is_renting":"OUI","is_returning":"OUI","duedate":"2023-12-05T16:05:51+01:00","nom_arrondissement_communes":"Rosny-sous-Bois","code_insee_commune":null}},{"type":"Feature","geometry":{"type":"Point","coordinates":[2.3925706744194,48.855907555969]},"properties":{"stationcode":"11104","name":"Charonne - Robert et Sonia Delaunay","is_installed":"OUI","capacity":20,"numdocksavailable":13,"numbikesavailable":6,"mechanical":4,"ebike":2,"is_renting":"OUI","is_returning":"OUI","duedate":"2023-12-05T16:04:49+01:00","nom_arrondissement_communes":"Paris","code_insee_commune":null}},{"type":"Feature","geometry":{"type":"Point","coordinates":[2.3963020229163,48.778192750803]},"properties":{"stationcode":"44015","name":"Rouget de L'isle - Watteau","is_installed":"OUI","capacity":20,"numdocksavailable":14,"numbikesavailable":5,"mechanical":1,"ebike":4,"is_renting":"OUI","is_returning":"OUI","duedate":"2023-12-05T16:05:00+01:00","nom_arrondissement_communes":"Vitry-sur-Seine","code_insee_commune":null}},{"type":"Feature","geometry":{"type":"Point","coordinates":[2.3534681351338,48.835092787824]},"properties":{"stationcode":"13007","name":"Le Brun - Gobelins","is_installed":"OUI","capacity":48,"numdocksavailable":44,"numbikesavailable":4,"mechanical":1,"ebike":3,"is_renting":"OUI","is_returning":"OUI","duedate":"2023-12-05T16:07:08+01:00","nom_arrondissement_communes":"Paris","code_insee_commune":null}},{"type":"Feature","geometry":{"type":"Point","coordinates":[2.3373600840568547,48.87929591733507]},"properties":{"stationcode":"9020","name":"Toudouze - Clauzel","is_installed":"OUI","capacity":21,"numdocksavailable":18,"numbikesavailable":3,"mechanical":1,"ebike":2,"is_renting":"OUI","is_returning":"OUI","duedate":"2023-12-05T15:59:52+01:00","nom_arrondissement_communes":"Paris","code_insee_commune":null}},{"type":"Feature","geometry":{"type":"Point","coordinates":[2.3308077827095985,48.85165383178419]},"properties":{"stationcode":"6003","name":"Saint-Sulpice","is_installed":"OUI","capacity":21,"numdocksavailable":4,"numbikesavailable":17,"mechanical":8,"ebike":9,"is_renting":"OUI","is_returning":"OUI","duedate":"2023-12-05T16:07:32+01:00","nom_arrondissement_communes":"Paris","code_insee_commune":null}},{"type":"Feature","geometry":{"type":"Point","coordinates":[2.3875549435616,48.840855311763]},"properties":{"stationcode":"12109","name":"Mairie du 12\u00e8me","is_installed":"OUI","capacity":30,"numdocksavailable":28,"numbikesavailable":2,"mechanical":1,"ebike":1,"is_renting":"OUI","is_returning":"OUI","duedate":"2023-12-05T16:03:21+01:00","nom_arrondissement_communes":"Paris","code_insee_commune":null}},{"type":"Feature","geometry":{"type":"Point","coordinates":[2.3519663885235786,48.84389286531899]},"properties":{"stationcode":"5110","name":"Lac\u00e9p\u00e8de - Monge","is_installed":"OUI","capacity":23,"numdocksavailable":13,"numbikesavailable":9,"mechanical":4,"ebike":5,"is_renting":"OUI","is_returning":"OUI","duedate":"2023-12-05T16:03:55+01:00","nom_arrondissement_communes":"Paris","code_insee_commune":null}},{"type":"Feature","geometry":{"type":"Point","coordinates":[2.3360354080796,48.837525839067]},"properties":{"stationcode":"14111","name":"Cassini - Denfert-Rochereau","is_installed":"OUI","capacity":25,"numdocksavailable":20,"numbikesavailable":5,"mechanical":0,"ebike":5,"is_renting":"OUI","is_returning":"OUI","duedate":"2023-12-05T16:02:18+01:00","nom_arrondissement_communes":"Paris","code_insee_commune":null}},{"type":"Feature","geometry":{"type":"Point","coordinates":[2.4708339950830287,48.836022242886884]},"properties":{"stationcode":"41301","name":"Bois de Vincennes - Gare","is_installed":"OUI","capacity":50,"numdocksavailable":33,"numbikesavailable":17,"mechanical":15,"ebike":2,"is_renting":"OUI","is_returning":"OUI","duedate":"2023-12-05T16:05:52+01:00","nom_arrondissement_communes":"Nogent-sur-Marne","code_insee_commune":null}},{"type":"Feature","geometry":{"type":"Point","coordinates":[2.3433353751898,48.819428333369]},"properties":{"stationcode":"14014","name":"Jourdan - Stade Charl\u00e9ty","is_installed":"OUI","capacity":60,"numdocksavailable":51,"numbikesavailable":8,"mechanical":2,"ebike":6,"is_renting":"OUI","is_returning":"OUI","duedate":"2023-12-05T16:05:10+01:00","nom_arrondissement_communes":"Paris","code_insee_commune":null}},{"type":"Feature","geometry":{"type":"Point","coordinates":[2.334851883351803,48.856451985395786]},"properties":{"stationcode":"6021","name":"Beaux-Arts - Bonaparte","is_installed":"OUI","capacity":20,"numdocksavailable":8,"numbikesavailable":12,"mechanical":5,"ebike":7,"is_renting":"OUI","is_returning":"OUI","duedate":"2023-12-05T16:06:46+01:00","nom_arrondissement_communes":"Paris","code_insee_commune":null}},{"type":"Feature","geometry":{"type":"Point","coordinates":[2.315508019010038,48.875448033960744]},"properties":{"stationcode":"8026","name":"Messine - Place Du P\u00e9rou","is_installed":"OUI","capacity":12,"numdocksavailable":0,"numbikesavailable":12,"mechanical":10,"ebike":2,"is_renting":"OUI","is_returning":"OUI","duedate":"2023-12-05T16:03:12+01:00","nom_arrondissement_communes":"Paris","code_insee_commune":null}},{"type":"Feature","geometry":{"type":"Point","coordinates":[2.1961666225454,48.862453313908]},"properties":{"stationcode":"25006","name":"Place Nelson Mandela","is_installed":"OUI","capacity":22,"numdocksavailable":18,"numbikesavailable":3,"mechanical":1,"ebike":2,"is_renting":"OUI","is_returning":"OUI","duedate":"2023-12-05T16:00:11+01:00","nom_arrondissement_communes":"Rueil-Malmaison","code_insee_commune":null}},{"type":"Feature","geometry":{"type":"Point","coordinates":[2.3204218259346,48.848563233059]},"properties":{"stationcode":"7002","name":"Vaneau - S\u00e8vres","is_installed":"OUI","capacity":35,"numdocksavailable":26,"numbikesavailable":7,"mechanical":3,"ebike":4,"is_renting":"OUI","is_returning":"OUI","duedate":"2023-12-05T16:02:44+01:00","nom_arrondissement_communes":"Paris","code_insee_commune":null}},{"type":"Feature","geometry":{"type":"Point","coordinates":[2.3004549373748,48.826103771275]},"properties":{"stationcode":"15202","name":"Bracion - P\u00e9riph\u00e9rique","is_installed":"OUI","capacity":30,"numdocksavailable":23,"numbikesavailable":7,"mechanical":5,"ebike":2,"is_renting":"OUI","is_returning":"OUI","duedate":"2023-12-05T16:02:36+01:00","nom_arrondissement_communes":"Paris","code_insee_commune":null}},{"type":"Feature","geometry":{"type":"Point","coordinates":[2.321374788880348,48.84708159081946]},"properties":{"stationcode":"6108","name":"Saint-Romain - Cherche-Midi","is_installed":"OUI","capacity":17,"numdocksavailable":15,"numbikesavailable":1,"mechanical":1,"ebike":0,"is_renting":"OUI","is_returning":"OUI","duedate":"2023-12-05T16:06:25+01:00","nom_arrondissement_communes":"Paris","code_insee_commune":null}},{"type":"Feature","geometry":{"type":"Point","coordinates":[2.325061820447445,48.851296433665276]},"properties":{"stationcode":"7003","name":"Square Boucicaut","is_installed":"OUI","capacity":60,"numdocksavailable":40,"numbikesavailable":19,"mechanical":7,"ebike":12,"is_renting":"OUI","is_returning":"OUI","duedate":"2023-12-05T16:06:21+01:00","nom_arrondissement_communes":"Paris","code_insee_commune":null}},{"type":"Feature","geometry":{"type":"Point","coordinates":[2.3851355910301213,48.91039875761846]},"properties":{"stationcode":"33006","name":"Andr\u00e9 Karman - R\u00e9publique","is_installed":"OUI","capacity":31,"numdocksavailable":20,"numbikesavailable":10,"mechanical":8,"ebike":2,"is_renting":"OUI","is_returning":"OUI","duedate":"2023-12-05T16:03:20+01:00","nom_arrondissement_communes":"Aubervilliers","code_insee_commune":null}},{"type":"Feature","geometry":{"type":"Point","coordinates":[2.301132157445,48.881973298352]},"properties":{"stationcode":"17026","name":"Jouffroy d'Abbans - Wagram","is_installed":"OUI","capacity":40,"numdocksavailable":13,"numbikesavailable":26,"mechanical":11,"ebike":15,"is_renting":"OUI","is_returning":"OUI","duedate":"2023-12-05T16:04:08+01:00","nom_arrondissement_communes":"Paris","code_insee_commune":null}},{"type":"Feature","geometry":{"type":"Point","coordinates":[2.376804985105991,48.81580226360801]},"properties":{"stationcode":"42016","name":"Pierre et Marie Curie - Maurice Thorez","is_installed":"OUI","capacity":27,"numdocksavailable":23,"numbikesavailable":4,"mechanical":0,"ebike":4,"is_renting":"OUI","is_returning":"OUI","duedate":"2023-12-05T16:06:21+01:00","nom_arrondissement_communes":"Ivry-sur-Seine","code_insee_commune":null}},{"type":"Feature","geometry":{"type":"Point","coordinates":[2.3494647851273465,48.84504716661511]},"properties":{"stationcode":"5016","name":"Thouin - Cardinal Lemoine","is_installed":"OUI","capacity":17,"numdocksavailable":9,"numbikesavailable":8,"mechanical":2,"ebike":6,"is_renting":"OUI","is_returning":"OUI","duedate":"2023-12-05T16:00:15+01:00","nom_arrondissement_communes":"Paris","code_insee_commune":null}},{"type":"Feature","geometry":{"type":"Point","coordinates":[2.2325500845909,48.835583838706]},"properties":{"stationcode":"21010","name":"Silly - Galli\u00e9ni","is_installed":"OUI","capacity":25,"numdocksavailable":15,"numbikesavailable":10,"mechanical":7,"ebike":3,"is_renting":"OUI","is_returning":"OUI","duedate":"2023-12-05T16:06:17+01:00","nom_arrondissement_communes":"Boulogne-Billancourt","code_insee_commune":null}},{"type":"Feature","geometry":{"type":"Point","coordinates":[2.37289470306807,48.8570414504784]},"properties":{"stationcode":"11025","name":"Froment - Br\u00e9guet","is_installed":"OUI","capacity":43,"numdocksavailable":3,"numbikesavailable":39,"mechanical":36,"ebike":3,"is_renting":"OUI","is_returning":"OUI","duedate":"2023-12-05T16:05:17+01:00","nom_arrondissement_communes":"Paris","code_insee_commune":null}},{"type":"Feature","geometry":{"type":"Point","coordinates":[2.4530601033354,48.908168131015]},"properties":{"stationcode":"30002","name":"Jean Rostand - Paul Vaillant Couturier","is_installed":"OUI","capacity":40,"numdocksavailable":17,"numbikesavailable":22,"mechanical":12,"ebike":10,"is_renting":"OUI","is_returning":"OUI","duedate":"2023-12-05T16:07:23+01:00","nom_arrondissement_communes":"Bobigny","code_insee_commune":null}},{"type":"Feature","geometry":{"type":"Point","coordinates":[2.3076787590981,48.871417284355]},"properties":{"stationcode":"8050","name":"Bo\u00e9tie - Ponthieu","is_installed":"OUI","capacity":33,"numdocksavailable":3,"numbikesavailable":30,"mechanical":24,"ebike":6,"is_renting":"OUI","is_returning":"OUI","duedate":"2023-12-05T16:07:01+01:00","nom_arrondissement_communes":"Paris","code_insee_commune":null}},{"type":"Feature","geometry":{"type":"Point","coordinates":[2.288124,48.876116]},"properties":{"stationcode":"17038","name":"Grande Arm\u00e9e - Brunel","is_installed":"OUI","capacity":62,"numdocksavailable":44,"numbikesavailable":18,"mechanical":6,"ebike":12,"is_renting":"OUI","is_returning":"OUI","duedate":"2023-12-05T16:07:27+01:00","nom_arrondissement_communes":"Paris","code_insee_commune":null}},{"type":"Feature","geometry":{"type":"Point","coordinates":[2.446748,48.86785]},"properties":{"stationcode":"31024","name":"Romainville - Vaillant-Couturier","is_installed":"OUI","capacity":38,"numdocksavailable":35,"numbikesavailable":2,"mechanical":0,"ebike":2,"is_renting":"OUI","is_returning":"OUI","duedate":"2023-12-05T16:05:23+01:00","nom_arrondissement_communes":"Montreuil","code_insee_commune":null}},{"type":"Feature","geometry":{"type":"Point","coordinates":[2.287667370814871,48.88287775178599]},"properties":{"stationcode":"17041","name":"Guersant - Gouvion-Saint-Cyr","is_installed":"OUI","capacity":36,"numdocksavailable":28,"numbikesavailable":8,"mechanical":3,"ebike":5,"is_renting":"OUI","is_returning":"OUI","duedate":"2023-12-05T16:03:41+01:00","nom_arrondissement_communes":"Paris","code_insee_commune":null}},{"type":"Feature","geometry":{"type":"Point","coordinates":[2.289705348222022,48.853844054333514]},"properties":{"stationcode":"15026","name":"Bir Hakeim","is_installed":"OUI","capacity":33,"numdocksavailable":12,"numbikesavailable":20,"mechanical":15,"ebike":5,"is_renting":"OUI","is_returning":"OUI","duedate":"2023-12-05T16:07:30+01:00","nom_arrondissement_communes":"Paris","code_insee_commune":null}},{"type":"Feature","geometry":{"type":"Point","coordinates":[2.299380004405976,48.83310149953933]},"properties":{"stationcode":"15047","name":"Morillons - Dantzig","is_installed":"OUI","capacity":52,"numdocksavailable":51,"numbikesavailable":1,"mechanical":0,"ebike":1,"is_renting":"OUI","is_returning":"OUI","duedate":"2023-12-05T16:03:59+01:00","nom_arrondissement_communes":"Paris","code_insee_commune":null}},{"type":"Feature","geometry":{"type":"Point","coordinates":[2.3267009854316716,48.81807418981508]},"properties":{"stationcode":"21216","name":"Louis Lejeune - Barb\u00e8s","is_installed":"OUI","capacity":25,"numdocksavailable":13,"numbikesavailable":12,"mechanical":2,"ebike":10,"is_renting":"OUI","is_returning":"OUI","duedate":"2023-12-05T16:04:27+01:00","nom_arrondissement_communes":"Montrouge","code_insee_commune":null}},{"type":"Feature","geometry":{"type":"Point","coordinates":[2.3481646925210953,48.830981659316855]},"properties":{"stationcode":"13101","name":"Croulebarde - Corvisart","is_installed":"OUI","capacity":34,"numdocksavailable":22,"numbikesavailable":12,"mechanical":8,"ebike":4,"is_renting":"OUI","is_returning":"OUI","duedate":"2023-12-05T16:06:07+01:00","nom_arrondissement_communes":"Paris","code_insee_commune":null}},{"type":"Feature","geometry":{"type":"Point","coordinates":[2.270506024360657,48.83823094269141]},"properties":{"stationcode":"15068","name":"G\u00e9n\u00e9ral Martial Valin - Pont du Garigliano","is_installed":"OUI","capacity":16,"numdocksavailable":6,"numbikesavailable":10,"mechanical":4,"ebike":6,"is_renting":"OUI","is_returning":"OUI","duedate":"2023-12-05T15:59:29+01:00","nom_arrondissement_communes":"Paris","code_insee_commune":null}},{"type":"Feature","geometry":{"type":"Point","coordinates":[2.327861653302471,48.82234096593411]},"properties":{"stationcode":"14108","name":"Le Brix et Mesmin - Jourdan","is_installed":"OUI","capacity":21,"numdocksavailable":20,"numbikesavailable":1,"mechanical":0,"ebike":1,"is_renting":"OUI","is_returning":"OUI","duedate":"2023-12-05T16:05:12+01:00","nom_arrondissement_communes":"Paris","code_insee_commune":null}},{"type":"Feature","geometry":{"type":"Point","coordinates":[2.4247387,48.8529945]},"properties":{"stationcode":"31028","name":"Raspail Barb\u00e8s","is_installed":"OUI","capacity":28,"numdocksavailable":24,"numbikesavailable":4,"mechanical":2,"ebike":2,"is_renting":"OUI","is_returning":"OUI","duedate":"2023-12-05T16:05:46+01:00","nom_arrondissement_communes":"Montreuil","code_insee_commune":null}},{"type":"Feature","geometry":{"type":"Point","coordinates":[2.4328628182411,48.790147809608]},"properties":{"stationcode":"47007","name":"Libert\u00e9 - Vert-de-Maisons","is_installed":"OUI","capacity":20,"numdocksavailable":20,"numbikesavailable":0,"mechanical":0,"ebike":0,"is_renting":"NON","is_returning":"NON","duedate":"2023-09-16T05:55:03+02:00","nom_arrondissement_communes":"Maisons-Alfort","code_insee_commune":null}},{"type":"Feature","geometry":{"type":"Point","coordinates":[2.417212128639221,48.79628807093802]},"properties":{"stationcode":"44017","name":"Jules Guesde - Pont du Port \u00e0 l'Anglais","is_installed":"OUI","capacity":30,"numdocksavailable":2,"numbikesavailable":28,"mechanical":27,"ebike":1,"is_renting":"OUI","is_returning":"OUI","duedate":"2023-12-05T16:05:57+01:00","nom_arrondissement_communes":"Vitry-sur-Seine","code_insee_commune":null}},{"type":"Feature","geometry":{"type":"Point","coordinates":[2.32851451022192,48.89792240854517]},"properties":{"stationcode":"17044","name":"Porte de Saint-Ouen - Bessi\u00e8res","is_installed":"OUI","capacity":42,"numdocksavailable":18,"numbikesavailable":10,"mechanical":9,"ebike":1,"is_renting":"OUI","is_returning":"OUI","duedate":"2023-12-05T16:05:42+01:00","nom_arrondissement_communes":"Paris","code_insee_commune":null}},{"type":"Feature","geometry":{"type":"Point","coordinates":[2.3661044619878,48.871044051984]},"properties":{"stationcode":"10013","name":"Alibert - Jemmapes","is_installed":"OUI","capacity":60,"numdocksavailable":55,"numbikesavailable":5,"mechanical":5,"ebike":0,"is_renting":"OUI","is_returning":"OUI","duedate":"2023-12-05T16:07:12+01:00","nom_arrondissement_communes":"Paris","code_insee_commune":null}},{"type":"Feature","geometry":{"type":"Point","coordinates":[2.381133802246315,48.89594736851349]},"properties":{"stationcode":"19033","name":"Cambrai - Benjamin Constant","is_installed":"OUI","capacity":43,"numdocksavailable":22,"numbikesavailable":19,"mechanical":0,"ebike":19,"is_renting":"OUI","is_returning":"OUI","duedate":"2023-12-05T16:05:39+01:00","nom_arrondissement_communes":"Paris","code_insee_commune":null}},{"type":"Feature","geometry":{"type":"Point","coordinates":[2.2584119439125065,48.840579923690115]},"properties":{"stationcode":"16118","name":"Michel-Ange - Parent de Rosan","is_installed":"OUI","capacity":26,"numdocksavailable":17,"numbikesavailable":7,"mechanical":3,"ebike":4,"is_renting":"OUI","is_returning":"OUI","duedate":"2023-12-05T16:00:22+01:00","nom_arrondissement_communes":"Paris","code_insee_commune":null}},{"type":"Feature","geometry":{"type":"Point","coordinates":[2.3034455627202988,48.879406604954]},"properties":{"stationcode":"17025","name":"Chazelles - Courcelles","is_installed":"OUI","capacity":35,"numdocksavailable":28,"numbikesavailable":5,"mechanical":2,"ebike":3,"is_renting":"OUI","is_returning":"OUI","duedate":"2023-12-05T15:59:45+01:00","nom_arrondissement_communes":"Paris","code_insee_commune":null}},{"type":"Feature","geometry":{"type":"Point","coordinates":[2.343698,48.879161]},"properties":{"stationcode":"9008","name":"Tour d'Auvergne - Rodier","is_installed":"OUI","capacity":17,"numdocksavailable":15,"numbikesavailable":1,"mechanical":0,"ebike":1,"is_renting":"OUI","is_returning":"OUI","duedate":"2023-12-05T16:01:40+01:00","nom_arrondissement_communes":"Paris","code_insee_commune":null}},{"type":"Feature","geometry":{"type":"Point","coordinates":[2.2754641655975,48.822036188382]},"properties":{"stationcode":"21326","name":"Moulin de Pierre - Abb\u00e9 Gr\u00e9goire","is_installed":"OUI","capacity":20,"numdocksavailable":19,"numbikesavailable":1,"mechanical":0,"ebike":1,"is_renting":"OUI","is_returning":"OUI","duedate":"2023-12-05T16:07:22+01:00","nom_arrondissement_communes":"Issy-les-Moulineaux","code_insee_commune":null}},{"type":"Feature","geometry":{"type":"Point","coordinates":[2.342167,48.8214169]},"properties":{"stationcode":"14013","name":"Liard - Amiral Mouchez","is_installed":"OUI","capacity":14,"numdocksavailable":13,"numbikesavailable":1,"mechanical":0,"ebike":1,"is_renting":"OUI","is_returning":"OUI","duedate":"2023-12-05T16:03:49+01:00","nom_arrondissement_communes":"Paris","code_insee_commune":null}},{"type":"Feature","geometry":{"type":"Point","coordinates":[2.379056852114,48.871031137596]},"properties":{"stationcode":"20143","name":"Ramponeau - Belleville","is_installed":"OUI","capacity":44,"numdocksavailable":39,"numbikesavailable":2,"mechanical":2,"ebike":0,"is_renting":"OUI","is_returning":"OUI","duedate":"2023-12-05T16:07:32+01:00","nom_arrondissement_communes":"Paris","code_insee_commune":null}},{"type":"Feature","geometry":{"type":"Point","coordinates":[2.377065159380436,48.82435782216384]},"properties":{"stationcode":"13118","name":"Regnault - Patay","is_installed":"OUI","capacity":63,"numdocksavailable":7,"numbikesavailable":56,"mechanical":51,"ebike":5,"is_renting":"OUI","is_returning":"OUI","duedate":"2023-12-05T16:06:20+01:00","nom_arrondissement_communes":"Paris","code_insee_commune":null}},{"type":"Feature","geometry":{"type":"Point","coordinates":[2.426325418925233,48.84884147189881]},"properties":{"stationcode":"43002","name":"Lagny - Victor Basch","is_installed":"OUI","capacity":26,"numdocksavailable":21,"numbikesavailable":5,"mechanical":4,"ebike":1,"is_renting":"OUI","is_returning":"OUI","duedate":"2023-12-05T16:07:19+01:00","nom_arrondissement_communes":"Vincennes","code_insee_commune":null}},{"type":"Feature","geometry":{"type":"Point","coordinates":[2.2730283066630363,48.86106902949534]},"properties":{"stationcode":"16110","name":"Octave Feuillet - Alb\u00e9ric Magnard","is_installed":"OUI","capacity":21,"numdocksavailable":19,"numbikesavailable":2,"mechanical":0,"ebike":2,"is_renting":"OUI","is_returning":"OUI","duedate":"2023-12-05T16:05:03+01:00","nom_arrondissement_communes":"Paris","code_insee_commune":null}},{"type":"Feature","geometry":{"type":"Point","coordinates":[2.2549109905958176,48.85772148887421]},"properties":{"stationcode":"16138","name":"Saint-Cloud - Hippodrome","is_installed":"OUI","capacity":30,"numdocksavailable":24,"numbikesavailable":6,"mechanical":3,"ebike":3,"is_renting":"OUI","is_returning":"OUI","duedate":"2023-12-05T16:03:23+01:00","nom_arrondissement_communes":"Paris","code_insee_commune":null}},{"type":"Feature","geometry":{"type":"Point","coordinates":[2.32971478253603,48.83940266673835]},"properties":{"stationcode":"14002","name":"Edgar Quinet - Raspail","is_installed":"OUI","capacity":46,"numdocksavailable":43,"numbikesavailable":2,"mechanical":1,"ebike":1,"is_renting":"OUI","is_returning":"OUI","duedate":"2023-12-05T16:05:35+01:00","nom_arrondissement_communes":"Paris","code_insee_commune":null}},{"type":"Feature","geometry":{"type":"Point","coordinates":[2.3143940046429634,48.78980918988166]},"properties":{"stationcode":"22207","name":"Rond-point du Dr Albert Schweitzer","is_installed":"OUI","capacity":22,"numdocksavailable":17,"numbikesavailable":5,"mechanical":1,"ebike":4,"is_renting":"OUI","is_returning":"OUI","duedate":"2023-12-05T16:02:18+01:00","nom_arrondissement_communes":"Bagneux","code_insee_commune":null}},{"type":"Feature","geometry":{"type":"Point","coordinates":[2.452062070369721,48.8468428626593]},"properties":{"stationcode":"43009","name":"Place Jean-Spire-Lema\u00eetre","is_installed":"OUI","capacity":50,"numdocksavailable":44,"numbikesavailable":6,"mechanical":3,"ebike":3,"is_renting":"OUI","is_returning":"OUI","duedate":"2023-12-05T16:07:05+01:00","nom_arrondissement_communes":"Vincennes","code_insee_commune":null}},{"type":"Feature","geometry":{"type":"Point","coordinates":[2.3263905197382,48.853147816545]},"properties":{"stationcode":"7004","name":"Raspail - Varenne","is_installed":"OUI","capacity":18,"numdocksavailable":4,"numbikesavailable":14,"mechanical":7,"ebike":7,"is_renting":"OUI","is_returning":"OUI","duedate":"2023-12-05T16:06:32+01:00","nom_arrondissement_communes":"Paris","code_insee_commune":null}},{"type":"Feature","geometry":{"type":"Point","coordinates":[2.301771435325988,48.874750203956566]},"properties":{"stationcode":"8053","name":"Place Georges Guillaumin","is_installed":"OUI","capacity":29,"numdocksavailable":3,"numbikesavailable":23,"mechanical":6,"ebike":17,"is_renting":"OUI","is_returning":"OUI","duedate":"2023-12-05T16:07:31+01:00","nom_arrondissement_communes":"Paris","code_insee_commune":null}},{"type":"Feature","geometry":{"type":"Point","coordinates":[2.2136941552162,48.892648526839]},"properties":{"stationcode":"92002","name":"Th\u00e9\u00e2tre des Amandiers - Palais des sports","is_installed":"OUI","capacity":23,"numdocksavailable":9,"numbikesavailable":13,"mechanical":3,"ebike":10,"is_renting":"OUI","is_returning":"OUI","duedate":"2023-12-05T16:02:46+01:00","nom_arrondissement_communes":"Nanterre","code_insee_commune":null}},{"type":"Feature","geometry":{"type":"Point","coordinates":[2.348463758826256,48.87759897050706]},"properties":{"stationcode":"9001","name":"Bellefond - Poissonni\u00e8re","is_installed":"OUI","capacity":17,"numdocksavailable":13,"numbikesavailable":4,"mechanical":1,"ebike":3,"is_renting":"OUI","is_returning":"OUI","duedate":"2023-12-05T16:07:11+01:00","nom_arrondissement_communes":"Paris","code_insee_commune":null}},{"type":"Feature","geometry":{"type":"Point","coordinates":[2.3576171323657036,48.82557229464416]},"properties":{"stationcode":"13030","name":"Italie - Tolbiac","is_installed":"OUI","capacity":21,"numdocksavailable":14,"numbikesavailable":7,"mechanical":2,"ebike":5,"is_renting":"OUI","is_returning":"OUI","duedate":"2023-12-05T16:05:46+01:00","nom_arrondissement_communes":"Paris","code_insee_commune":null}},{"type":"Feature","geometry":{"type":"Point","coordinates":[2.323658830743138,48.87320440102894]},"properties":{"stationcode":"8016","name":"Square Louis XVI","is_installed":"OUI","capacity":29,"numdocksavailable":5,"numbikesavailable":22,"mechanical":8,"ebike":14,"is_renting":"OUI","is_returning":"OUI","duedate":"2023-12-05T16:07:19+01:00","nom_arrondissement_communes":"Paris","code_insee_commune":null}},{"type":"Feature","geometry":{"type":"Point","coordinates":[2.39806417375803,48.8804934032465]},"properties":{"stationcode":"19027","name":"Serrurier","is_installed":"OUI","capacity":18,"numdocksavailable":17,"numbikesavailable":1,"mechanical":0,"ebike":1,"is_renting":"OUI","is_returning":"OUI","duedate":"2023-12-05T16:05:59+01:00","nom_arrondissement_communes":"Paris","code_insee_commune":null}},{"type":"Feature","geometry":{"type":"Point","coordinates":[2.366596162319184,48.87935941942529]},"properties":{"stationcode":"10162","name":"Alexandre Parodi - Quai de Valmy","is_installed":"OUI","capacity":24,"numdocksavailable":23,"numbikesavailable":1,"mechanical":1,"ebike":0,"is_renting":"OUI","is_returning":"OUI","duedate":"2023-12-05T16:04:12+01:00","nom_arrondissement_communes":"Paris","code_insee_commune":null}},{"type":"Feature","geometry":{"type":"Point","coordinates":[2.314002,48.882428]},"properties":{"stationcode":"17048","name":"De Toqueville - Terrasse","is_installed":"OUI","capacity":30,"numdocksavailable":27,"numbikesavailable":1,"mechanical":1,"ebike":0,"is_renting":"OUI","is_returning":"OUI","duedate":"2023-12-05T16:05:11+01:00","nom_arrondissement_communes":"Paris","code_insee_commune":null}},{"type":"Feature","geometry":{"type":"Point","coordinates":[2.3680844979417,48.8761373390584]},"properties":{"stationcode":"10115","name":"Granges aux Belles","is_installed":"OUI","capacity":27,"numdocksavailable":26,"numbikesavailable":1,"mechanical":1,"ebike":0,"is_renting":"OUI","is_returning":"OUI","duedate":"2023-12-05T16:04:12+01:00","nom_arrondissement_communes":"Paris","code_insee_commune":null}},{"type":"Feature","geometry":{"type":"Point","coordinates":[2.349364310503006,48.86785342111862]},"properties":{"stationcode":"2017","name":"Caire - Dussoubs","is_installed":"OUI","capacity":40,"numdocksavailable":3,"numbikesavailable":37,"mechanical":28,"ebike":9,"is_renting":"OUI","is_returning":"OUI","duedate":"2023-12-05T16:06:56+01:00","nom_arrondissement_communes":"Paris","code_insee_commune":null}},{"type":"Feature","geometry":{"type":"Point","coordinates":[2.385534569621086,48.8351212784276]},"properties":{"stationcode":"12031","name":"Gabriel Lam\u00e9","is_installed":"OUI","capacity":36,"numdocksavailable":1,"numbikesavailable":35,"mechanical":32,"ebike":3,"is_renting":"OUI","is_returning":"OUI","duedate":"2023-12-05T16:07:35+01:00","nom_arrondissement_communes":"Paris","code_insee_commune":null}},{"type":"Feature","geometry":{"type":"Point","coordinates":[2.3064258322119713,48.87393521240818]},"properties":{"stationcode":"8103","name":"Artois - Berri","is_installed":"OUI","capacity":23,"numdocksavailable":4,"numbikesavailable":18,"mechanical":8,"ebike":10,"is_renting":"OUI","is_returning":"OUI","duedate":"2023-12-05T16:07:18+01:00","nom_arrondissement_communes":"Paris","code_insee_commune":null}},{"type":"Feature","geometry":{"type":"Point","coordinates":[2.3521495,48.8462904]},"properties":{"stationcode":"5022","name":"Boulangers - Cardinal Lemoine","is_installed":"OUI","capacity":20,"numdocksavailable":5,"numbikesavailable":15,"mechanical":9,"ebike":6,"is_renting":"OUI","is_returning":"OUI","duedate":"2023-12-05T16:06:19+01:00","nom_arrondissement_communes":"Paris","code_insee_commune":null}},{"type":"Feature","geometry":{"type":"Point","coordinates":[2.2986030816809,48.868834023334]},"properties":{"stationcode":"8048","name":"Marceau - Chaillot","is_installed":"OUI","capacity":21,"numdocksavailable":17,"numbikesavailable":4,"mechanical":2,"ebike":2,"is_renting":"OUI","is_returning":"OUI","duedate":"2023-12-05T16:05:02+01:00","nom_arrondissement_communes":"Paris","code_insee_commune":null}},{"type":"Feature","geometry":{"type":"Point","coordinates":[2.2670380088932,48.816376985087]},"properties":{"stationcode":"21328","name":"Verger - Colonel Guichard","is_installed":"OUI","capacity":29,"numdocksavailable":28,"numbikesavailable":1,"mechanical":0,"ebike":1,"is_renting":"OUI","is_returning":"OUI","duedate":"2023-12-05T16:04:12+01:00","nom_arrondissement_communes":"Issy-les-Moulineaux","code_insee_commune":null}},{"type":"Feature","geometry":{"type":"Point","coordinates":[2.333393658804396,48.88949630486821]},"properties":{"stationcode":"18111","name":"F\u00e9lix Ziem - Armand Gauthier","is_installed":"OUI","capacity":25,"numdocksavailable":21,"numbikesavailable":4,"mechanical":0,"ebike":4,"is_renting":"OUI","is_returning":"OUI","duedate":"2023-12-05T16:05:44+01:00","nom_arrondissement_communes":"Paris","code_insee_commune":null}},{"type":"Feature","geometry":{"type":"Point","coordinates":[2.268122527474,48.827228120536]},"properties":{"stationcode":"21323","name":"Charlot - Stade Gabriel Voisin","is_installed":"OUI","capacity":31,"numdocksavailable":2,"numbikesavailable":29,"mechanical":24,"ebike":5,"is_renting":"OUI","is_returning":"OUI","duedate":"2023-12-05T16:07:36+01:00","nom_arrondissement_communes":"Issy-les-Moulineaux","code_insee_commune":null}},{"type":"Feature","geometry":{"type":"Point","coordinates":[2.349147,48.879223]},"properties":{"stationcode":"9002","name":"Abbeville - Faubourg Poissonni\u00e8re","is_installed":"OUI","capacity":14,"numdocksavailable":14,"numbikesavailable":0,"mechanical":0,"ebike":0,"is_renting":"OUI","is_returning":"OUI","duedate":"2023-12-05T16:07:36+01:00","nom_arrondissement_communes":"Paris","code_insee_commune":null}},{"type":"Feature","geometry":{"type":"Point","coordinates":[2.2994716674148,48.874510616163]},"properties":{"stationcode":"8201","name":"Ars\u00e8ne Houssaye - Friedland","is_installed":"OUI","capacity":29,"numdocksavailable":23,"numbikesavailable":5,"mechanical":1,"ebike":4,"is_renting":"OUI","is_returning":"OUI","duedate":"2023-12-05T16:07:32+01:00","nom_arrondissement_communes":"Paris","code_insee_commune":null}},{"type":"Feature","geometry":{"type":"Point","coordinates":[2.35908430069685,48.78448485079149]},"properties":{"stationcode":"48003","name":"Youri Gagarine - Karl Marx","is_installed":"OUI","capacity":22,"numdocksavailable":19,"numbikesavailable":3,"mechanical":0,"ebike":3,"is_renting":"OUI","is_returning":"OUI","duedate":"2023-12-05T16:07:35+01:00","nom_arrondissement_communes":"Villejuif","code_insee_commune":null}},{"type":"Feature","geometry":{"type":"Point","coordinates":[2.3458001,48.8978867]},"properties":{"stationcode":"18134","name":"Ney - Porte de Clignancourt","is_installed":"OUI","capacity":25,"numdocksavailable":25,"numbikesavailable":0,"mechanical":0,"ebike":0,"is_renting":"NON","is_returning":"NON","duedate":"2023-12-05T16:05:18+01:00","nom_arrondissement_communes":"Paris","code_insee_commune":null}},{"type":"Feature","geometry":{"type":"Point","coordinates":[2.340853661298752,48.87525454905335]},"properties":{"stationcode":"9014","name":"Faubourg Montmartre - La Fayette","is_installed":"OUI","capacity":35,"numdocksavailable":10,"numbikesavailable":24,"mechanical":18,"ebike":6,"is_renting":"OUI","is_returning":"OUI","duedate":"2023-12-05T16:07:23+01:00","nom_arrondissement_communes":"Paris","code_insee_commune":null}},{"type":"Feature","geometry":{"type":"Point","coordinates":[2.480436824262142,48.88115023337061]},"properties":{"stationcode":"31103","name":"Gare Rosny-Bois-Perrier","is_installed":"OUI","capacity":36,"numdocksavailable":14,"numbikesavailable":19,"mechanical":2,"ebike":17,"is_renting":"OUI","is_returning":"OUI","duedate":"2023-12-05T16:07:00+01:00","nom_arrondissement_communes":"Rosny-sous-Bois","code_insee_commune":null}},{"type":"Feature","geometry":{"type":"Point","coordinates":[2.288640439510346,48.88655580065981]},"properties":{"stationcode":"17032","name":"Jean Oestreicher - Porte de Champerret","is_installed":"OUI","capacity":21,"numdocksavailable":13,"numbikesavailable":8,"mechanical":1,"ebike":7,"is_renting":"OUI","is_returning":"OUI","duedate":"2023-12-05T16:05:26+01:00","nom_arrondissement_communes":"Paris","code_insee_commune":null}},{"type":"Feature","geometry":{"type":"Point","coordinates":[2.3230632,48.8978765]},"properties":{"stationcode":"17008","name":"Porte Pouchet-Bessi\u00e8res","is_installed":"OUI","capacity":23,"numdocksavailable":9,"numbikesavailable":13,"mechanical":8,"ebike":5,"is_renting":"OUI","is_returning":"OUI","duedate":"2023-12-05T16:07:06+01:00","nom_arrondissement_communes":"Paris","code_insee_commune":null}},{"type":"Feature","geometry":{"type":"Point","coordinates":[2.351464,48.880726]},"properties":{"stationcode":"10029","name":"Dunkerque - Rocroy","is_installed":"OUI","capacity":24,"numdocksavailable":22,"numbikesavailable":2,"mechanical":1,"ebike":1,"is_renting":"OUI","is_returning":"OUI","duedate":"2023-12-05T16:03:55+01:00","nom_arrondissement_communes":"Paris","code_insee_commune":null}},{"type":"Feature","geometry":{"type":"Point","coordinates":[2.3110422492027287,48.838683941628375]},"properties":{"stationcode":"15112","name":"Vig\u00e9e-Lebrun - Anselme Payen","is_installed":"OUI","capacity":24,"numdocksavailable":24,"numbikesavailable":0,"mechanical":0,"ebike":0,"is_renting":"OUI","is_returning":"OUI","duedate":"2023-12-05T16:04:58+01:00","nom_arrondissement_communes":"Paris","code_insee_commune":null}},{"type":"Feature","geometry":{"type":"Point","coordinates":[2.341923944866407,48.844730256132095]},"properties":{"stationcode":"5005","name":"Gay Lussac - Saint-Jacques","is_installed":"OUI","capacity":24,"numdocksavailable":12,"numbikesavailable":12,"mechanical":1,"ebike":11,"is_renting":"OUI","is_returning":"OUI","duedate":"2023-12-05T16:07:11+01:00","nom_arrondissement_communes":"Paris","code_insee_commune":null}},{"type":"Feature","geometry":{"type":"Point","coordinates":[2.4155035614967,48.862923800596]},"properties":{"stationcode":"31706","name":"Ch\u00e2teau - R\u00e9publique","is_installed":"OUI","capacity":26,"numdocksavailable":24,"numbikesavailable":2,"mechanical":2,"ebike":0,"is_renting":"OUI","is_returning":"OUI","duedate":"2023-12-05T16:02:16+01:00","nom_arrondissement_communes":"Bagnolet","code_insee_commune":null}},{"type":"Feature","geometry":{"type":"Point","coordinates":[2.3594588041306,48.875642647477]},"properties":{"stationcode":"10161","name":"Gare de l'Est - Faubourg-Saint-Martin","is_installed":"OUI","capacity":32,"numdocksavailable":28,"numbikesavailable":4,"mechanical":0,"ebike":4,"is_renting":"OUI","is_returning":"OUI","duedate":"2023-12-05T16:01:45+01:00","nom_arrondissement_communes":"Paris","code_insee_commune":null}},{"type":"Feature","geometry":{"type":"Point","coordinates":[2.3558086529374,48.849063299501]},"properties":{"stationcode":"5020","name":"Institut du Monde Arabe - Saint-Germain","is_installed":"OUI","capacity":40,"numdocksavailable":7,"numbikesavailable":31,"mechanical":28,"ebike":3,"is_renting":"OUI","is_returning":"OUI","duedate":"2023-12-05T16:05:47+01:00","nom_arrondissement_communes":"Paris","code_insee_commune":null}},{"type":"Feature","geometry":{"type":"Point","coordinates":[2.493693307042122,48.83842553348809]},"properties":{"stationcode":"41303","name":"Gare de Nogent-le-Perreux","is_installed":"OUI","capacity":32,"numdocksavailable":14,"numbikesavailable":17,"mechanical":14,"ebike":3,"is_renting":"OUI","is_returning":"OUI","duedate":"2023-12-05T16:05:34+01:00","nom_arrondissement_communes":"Nogent-sur-Marne","code_insee_commune":null}},{"type":"Feature","geometry":{"type":"Point","coordinates":[2.3703941702842717,48.884492238407525]},"properties":{"stationcode":"19003","name":"Quai de la Seine","is_installed":"OUI","capacity":24,"numdocksavailable":22,"numbikesavailable":2,"mechanical":0,"ebike":2,"is_renting":"OUI","is_returning":"OUI","duedate":"2023-12-05T16:05:59+01:00","nom_arrondissement_communes":"Paris","code_insee_commune":null}},{"type":"Feature","geometry":{"type":"Point","coordinates":[2.3185685276985,48.859091104741]},"properties":{"stationcode":"7011","name":"Las Cases - Bourgogne","is_installed":"OUI","capacity":22,"numdocksavailable":7,"numbikesavailable":15,"mechanical":12,"ebike":3,"is_renting":"OUI","is_returning":"OUI","duedate":"2023-12-05T16:05:04+01:00","nom_arrondissement_communes":"Paris","code_insee_commune":null}},{"type":"Feature","geometry":{"type":"Point","coordinates":[2.309694221419506,48.87745567681383]},"properties":{"stationcode":"8036","name":"Lisbonne - Monceau","is_installed":"OUI","capacity":33,"numdocksavailable":6,"numbikesavailable":27,"mechanical":10,"ebike":17,"is_renting":"OUI","is_returning":"OUI","duedate":"2023-12-05T16:06:20+01:00","nom_arrondissement_communes":"Paris","code_insee_commune":null}},{"type":"Feature","geometry":{"type":"Point","coordinates":[2.3097044974566,48.851419978983]},"properties":{"stationcode":"7018","name":"S\u00e9gur - d'Estr\u00e9es","is_installed":"OUI","capacity":19,"numdocksavailable":13,"numbikesavailable":6,"mechanical":4,"ebike":2,"is_renting":"OUI","is_returning":"OUI","duedate":"2023-12-05T16:03:29+01:00","nom_arrondissement_communes":"Paris","code_insee_commune":null}},{"type":"Feature","geometry":{"type":"Point","coordinates":[2.3726498446286,48.845515089794]},"properties":{"stationcode":"12151","name":"Gare de Lyon - Place Louis Armand","is_installed":"OUI","capacity":60,"numdocksavailable":51,"numbikesavailable":9,"mechanical":6,"ebike":3,"is_renting":"OUI","is_returning":"OUI","duedate":"2023-12-05T16:05:22+01:00","nom_arrondissement_communes":"Paris","code_insee_commune":null}},{"type":"Feature","geometry":{"type":"Point","coordinates":[2.329423,48.87219]},"properties":{"stationcode":"9106","name":"Boudreau - Auber","is_installed":"OUI","capacity":14,"numdocksavailable":10,"numbikesavailable":3,"mechanical":1,"ebike":2,"is_renting":"OUI","is_returning":"OUI","duedate":"2023-12-05T16:04:23+01:00","nom_arrondissement_communes":"Paris","code_insee_commune":null}},{"type":"Feature","geometry":{"type":"Point","coordinates":[2.2704418,48.8554439]},"properties":{"stationcode":"16026","name":"Ranelagh - Mozart","is_installed":"OUI","capacity":23,"numdocksavailable":17,"numbikesavailable":3,"mechanical":0,"ebike":3,"is_renting":"OUI","is_returning":"OUI","duedate":"2023-12-05T16:05:28+01:00","nom_arrondissement_communes":"Paris","code_insee_commune":null}},{"type":"Feature","geometry":{"type":"Point","coordinates":[2.288012132048607,48.87973954830735]},"properties":{"stationcode":"17040","name":"Pereire - Ternes","is_installed":"OUI","capacity":48,"numdocksavailable":38,"numbikesavailable":9,"mechanical":4,"ebike":5,"is_renting":"OUI","is_returning":"OUI","duedate":"2023-12-05T16:04:10+01:00","nom_arrondissement_communes":"Paris","code_insee_commune":null}},{"type":"Feature","geometry":{"type":"Point","coordinates":[2.3310810327529907,48.88006587474148]},"properties":{"stationcode":"9028","name":"Moncey - Blanche","is_installed":"OUI","capacity":17,"numdocksavailable":12,"numbikesavailable":4,"mechanical":1,"ebike":3,"is_renting":"OUI","is_returning":"OUI","duedate":"2023-12-05T16:04:34+01:00","nom_arrondissement_communes":"Paris","code_insee_commune":null}},{"type":"Feature","geometry":{"type":"Point","coordinates":[2.3308449949028507,48.88320784122797]},"properties":{"stationcode":"9038","name":"Douai - Bruxelles","is_installed":"OUI","capacity":27,"numdocksavailable":24,"numbikesavailable":3,"mechanical":0,"ebike":3,"is_renting":"OUI","is_returning":"OUI","duedate":"2023-12-05T16:05:08+01:00","nom_arrondissement_communes":"Paris","code_insee_commune":null}},{"type":"Feature","geometry":{"type":"Point","coordinates":[2.2836696356535,48.929867194519]},"properties":{"stationcode":"26002","name":"Redoute - Les Courtilles","is_installed":"OUI","capacity":40,"numdocksavailable":13,"numbikesavailable":23,"mechanical":20,"ebike":3,"is_renting":"OUI","is_returning":"OUI","duedate":"2023-12-05T16:05:24+01:00","nom_arrondissement_communes":"Asni\u00e8res-sur-Seine","code_insee_commune":null}},{"type":"Feature","geometry":{"type":"Point","coordinates":[2.326515804784655,48.874777677621296]},"properties":{"stationcode":"8009","name":"Gare Saint-Lazare - Isly","is_installed":"OUI","capacity":27,"numdocksavailable":10,"numbikesavailable":13,"mechanical":10,"ebike":3,"is_renting":"OUI","is_returning":"OUI","duedate":"2023-12-05T16:06:25+01:00","nom_arrondissement_communes":"Paris","code_insee_commune":null}},{"type":"Feature","geometry":{"type":"Point","coordinates":[2.2854680567979813,48.88022154052015]},"properties":{"stationcode":"17043","name":"Belidor - Gouvion-Saint-Cyr","is_installed":"OUI","capacity":39,"numdocksavailable":36,"numbikesavailable":3,"mechanical":0,"ebike":3,"is_renting":"OUI","is_returning":"OUI","duedate":"2023-12-05T16:03:48+01:00","nom_arrondissement_communes":"Paris","code_insee_commune":null}},{"type":"Feature","geometry":{"type":"Point","coordinates":[2.3417982839439,48.857058739111]},"properties":{"stationcode":"1001","name":"Quai de l'Horloge - Pont Neuf","is_installed":"OUI","capacity":17,"numdocksavailable":2,"numbikesavailable":13,"mechanical":11,"ebike":2,"is_renting":"OUI","is_returning":"OUI","duedate":"2023-12-05T16:06:17+01:00","nom_arrondissement_communes":"Paris","code_insee_commune":null}},{"type":"Feature","geometry":{"type":"Point","coordinates":[2.264390252530575,48.84097491091973]},"properties":{"stationcode":"16039","name":"Exelmans - Versailles","is_installed":"OUI","capacity":49,"numdocksavailable":44,"numbikesavailable":4,"mechanical":1,"ebike":3,"is_renting":"OUI","is_returning":"OUI","duedate":"2023-12-05T16:04:17+01:00","nom_arrondissement_communes":"Paris","code_insee_commune":null}},{"type":"Feature","geometry":{"type":"Point","coordinates":[2.2931787543289,48.856502977696]},"properties":{"stationcode":"7025","name":"Octave Gr\u00e9ard - Tour Eiffel","is_installed":"OUI","capacity":33,"numdocksavailable":17,"numbikesavailable":16,"mechanical":3,"ebike":13,"is_renting":"OUI","is_returning":"OUI","duedate":"2023-12-05T16:07:00+01:00","nom_arrondissement_communes":"Paris","code_insee_commune":null}},{"type":"Feature","geometry":{"type":"Point","coordinates":[2.3733686318721463,48.85507930579506]},"properties":{"stationcode":"11002","name":"Roquette - Thi\u00e9r\u00e9","is_installed":"OUI","capacity":23,"numdocksavailable":5,"numbikesavailable":17,"mechanical":13,"ebike":4,"is_renting":"OUI","is_returning":"OUI","duedate":"2023-12-05T16:07:24+01:00","nom_arrondissement_communes":"Paris","code_insee_commune":null}},{"type":"Feature","geometry":{"type":"Point","coordinates":[2.3358313530377,48.857615678565]},"properties":{"stationcode":"6001","name":"Institut de France","is_installed":"OUI","capacity":17,"numdocksavailable":5,"numbikesavailable":12,"mechanical":10,"ebike":2,"is_renting":"OUI","is_returning":"OUI","duedate":"2023-12-05T16:06:52+01:00","nom_arrondissement_communes":"Paris","code_insee_commune":null}},{"type":"Feature","geometry":{"type":"Point","coordinates":[2.397253782195704,48.83761417037952]},"properties":{"stationcode":"12111","name":"Claude Decaen - Cannebi\u00e8re","is_installed":"OUI","capacity":27,"numdocksavailable":26,"numbikesavailable":1,"mechanical":1,"ebike":0,"is_renting":"OUI","is_returning":"OUI","duedate":"2023-12-05T16:07:27+01:00","nom_arrondissement_communes":"Paris","code_insee_commune":null}},{"type":"Feature","geometry":{"type":"Point","coordinates":[2.395733,48.883667]},"properties":{"stationcode":"19105","name":"Ambroise Rendu - Porte Brunet","is_installed":"OUI","capacity":17,"numdocksavailable":14,"numbikesavailable":3,"mechanical":0,"ebike":3,"is_renting":"OUI","is_returning":"OUI","duedate":"2023-12-05T16:04:59+01:00","nom_arrondissement_communes":"Paris","code_insee_commune":null}},{"type":"Feature","geometry":{"type":"Point","coordinates":[2.3677996181077,48.861142162761]},"properties":{"stationcode":"11047","name":"Amelot - Saint-S\u00e9bastien","is_installed":"OUI","capacity":30,"numdocksavailable":7,"numbikesavailable":22,"mechanical":16,"ebike":6,"is_renting":"OUI","is_returning":"OUI","duedate":"2023-12-05T16:05:52+01:00","nom_arrondissement_communes":"Paris","code_insee_commune":null}},{"type":"Feature","geometry":{"type":"Point","coordinates":[2.2872862592339516,48.814183748660554]},"properties":{"stationcode":"22409","name":"Henri Barbusse - Stalingrad","is_installed":"OUI","capacity":16,"numdocksavailable":14,"numbikesavailable":2,"mechanical":2,"ebike":0,"is_renting":"OUI","is_returning":"OUI","duedate":"2023-12-05T16:02:01+01:00","nom_arrondissement_communes":"Malakoff","code_insee_commune":null}},{"type":"Feature","geometry":{"type":"Point","coordinates":[2.39790290594101,48.893923963057865]},"properties":{"stationcode":"19043","name":"Delphine Seyrig - G\u00e9n\u00e9ral Leclerc","is_installed":"OUI","capacity":53,"numdocksavailable":48,"numbikesavailable":5,"mechanical":1,"ebike":4,"is_renting":"OUI","is_returning":"OUI","duedate":"2023-12-05T16:04:07+01:00","nom_arrondissement_communes":"Pantin","code_insee_commune":null}},{"type":"Feature","geometry":{"type":"Point","coordinates":[2.3833653330802917,48.88917613743794]},"properties":{"stationcode":"19015","name":"Thionville - Ourcq","is_installed":"OUI","capacity":24,"numdocksavailable":18,"numbikesavailable":6,"mechanical":1,"ebike":5,"is_renting":"OUI","is_returning":"OUI","duedate":"2023-12-05T15:59:29+01:00","nom_arrondissement_communes":"Paris","code_insee_commune":null}},{"type":"Feature","geometry":{"type":"Point","coordinates":[2.293077029857222,48.852804604940296]},"properties":{"stationcode":"15067","name":"Desaix - Edgar Faure","is_installed":"OUI","capacity":12,"numdocksavailable":7,"numbikesavailable":4,"mechanical":2,"ebike":2,"is_renting":"OUI","is_returning":"OUI","duedate":"2023-12-05T16:06:34+01:00","nom_arrondissement_communes":"Paris","code_insee_commune":null}},{"type":"Feature","geometry":{"type":"Point","coordinates":[2.337980867701675,48.87334627510507]},"properties":{"stationcode":"9022","name":"Rossini - Laffitte","is_installed":"OUI","capacity":33,"numdocksavailable":3,"numbikesavailable":29,"mechanical":24,"ebike":5,"is_renting":"OUI","is_returning":"OUI","duedate":"2023-12-05T16:06:41+01:00","nom_arrondissement_communes":"Paris","code_insee_commune":null}},{"type":"Feature","geometry":{"type":"Point","coordinates":[2.464176752459464,48.81995307955795]},"properties":{"stationcode":"43401","name":"Gare RER - Canadiens","is_installed":"OUI","capacity":45,"numdocksavailable":26,"numbikesavailable":19,"mechanical":13,"ebike":6,"is_renting":"OUI","is_returning":"OUI","duedate":"2023-12-05T16:01:33+01:00","nom_arrondissement_communes":"Joinville-le-Pont","code_insee_commune":null}},{"type":"Feature","geometry":{"type":"Point","coordinates":[2.2814112156629562,48.91864865955558]},"properties":{"stationcode":"26003","name":"Argenteuil - Voltaire","is_installed":"OUI","capacity":16,"numdocksavailable":13,"numbikesavailable":3,"mechanical":2,"ebike":1,"is_renting":"OUI","is_returning":"OUI","duedate":"2023-12-05T16:00:32+01:00","nom_arrondissement_communes":"Asni\u00e8res-sur-Seine","code_insee_commune":null}},{"type":"Feature","geometry":{"type":"Point","coordinates":[2.3264628,48.8795431]},"properties":{"stationcode":"8010","name":"Li\u00e8ge - Moscou","is_installed":"OUI","capacity":17,"numdocksavailable":11,"numbikesavailable":6,"mechanical":3,"ebike":3,"is_renting":"OUI","is_returning":"OUI","duedate":"2023-12-05T15:59:29+01:00","nom_arrondissement_communes":"Paris","code_insee_commune":null}},{"type":"Feature","geometry":{"type":"Point","coordinates":[2.322528975094376,48.88896161855884]},"properties":{"stationcode":"17004","name":"Legendre - Clichy","is_installed":"OUI","capacity":40,"numdocksavailable":32,"numbikesavailable":6,"mechanical":1,"ebike":5,"is_renting":"OUI","is_returning":"OUI","duedate":"2023-12-05T16:05:01+01:00","nom_arrondissement_communes":"Paris","code_insee_commune":null}},{"type":"Feature","geometry":{"type":"Point","coordinates":[2.440614402294159,48.86131452758348]},"properties":{"stationcode":"31022","name":"Mairie de Montreuil","is_installed":"OUI","capacity":52,"numdocksavailable":50,"numbikesavailable":2,"mechanical":0,"ebike":2,"is_renting":"OUI","is_returning":"OUI","duedate":"2023-12-05T16:06:58+01:00","nom_arrondissement_communes":"Montreuil","code_insee_commune":null}},{"type":"Feature","geometry":{"type":"Point","coordinates":[2.3534657,48.8847601]},"properties":{"stationcode":"18107","name":"Chartres - La Charbonni\u00e8re","is_installed":"OUI","capacity":34,"numdocksavailable":33,"numbikesavailable":1,"mechanical":1,"ebike":0,"is_renting":"OUI","is_returning":"OUI","duedate":"2023-12-05T16:05:18+01:00","nom_arrondissement_communes":"Paris","code_insee_commune":null}},{"type":"Feature","geometry":{"type":"Point","coordinates":[2.3328901827335,48.886472466142]},"properties":{"stationcode":"18003","name":"Cimeti\u00e8re de Montmartre","is_installed":"OUI","capacity":43,"numdocksavailable":41,"numbikesavailable":1,"mechanical":0,"ebike":1,"is_renting":"OUI","is_returning":"OUI","duedate":"2023-12-05T16:02:01+01:00","nom_arrondissement_communes":"Paris","code_insee_commune":null}},{"type":"Feature","geometry":{"type":"Point","coordinates":[2.223908342421055,48.89577046284005]},"properties":{"stationcode":"92007","name":"Pesaro - Pr\u00e9fecture","is_installed":"OUI","capacity":22,"numdocksavailable":20,"numbikesavailable":2,"mechanical":0,"ebike":2,"is_renting":"OUI","is_returning":"OUI","duedate":"2023-12-05T16:04:50+01:00","nom_arrondissement_communes":"Nanterre","code_insee_commune":null}},{"type":"Feature","geometry":{"type":"Point","coordinates":[2.3215785772007,48.821466904768]},"properties":{"stationcode":"14020","name":"Cimeti\u00e8re de Montrouge","is_installed":"OUI","capacity":58,"numdocksavailable":58,"numbikesavailable":0,"mechanical":0,"ebike":0,"is_renting":"OUI","is_returning":"OUI","duedate":"2023-12-05T16:02:21+01:00","nom_arrondissement_communes":"Paris","code_insee_commune":null}},{"type":"Feature","geometry":{"type":"Point","coordinates":[2.352339,48.881949]},"properties":{"stationcode":"10107","name":"Gare du Nord - H\u00f4pital Lariboisi\u00e8re","is_installed":"OUI","capacity":49,"numdocksavailable":47,"numbikesavailable":1,"mechanical":0,"ebike":1,"is_renting":"OUI","is_returning":"OUI","duedate":"2023-12-05T16:04:44+01:00","nom_arrondissement_communes":"Paris","code_insee_commune":null}},{"type":"Feature","geometry":{"type":"Point","coordinates":[2.3455855841349,48.89579697978]},"properties":{"stationcode":"18031","name":"Place Albert Kahn","is_installed":"OUI","capacity":0,"numdocksavailable":0,"numbikesavailable":0,"mechanical":0,"ebike":0,"is_renting":"NON","is_returning":"NON","duedate":"2023-07-03T10:59:24+02:00","nom_arrondissement_communes":"Paris","code_insee_commune":null}},{"type":"Feature","geometry":{"type":"Point","coordinates":[2.392586767673493,48.88192765861766]},"properties":{"stationcode":"19026","name":"Place de Rhin et Danube","is_installed":"OUI","capacity":17,"numdocksavailable":16,"numbikesavailable":1,"mechanical":0,"ebike":1,"is_renting":"OUI","is_returning":"OUI","duedate":"2023-12-05T16:03:27+01:00","nom_arrondissement_communes":"Paris","code_insee_commune":null}},{"type":"Feature","geometry":{"type":"Point","coordinates":[2.3611663654447,48.814548697325]},"properties":{"stationcode":"42706","name":"Roger Salengro - Fontainebleau","is_installed":"OUI","capacity":25,"numdocksavailable":21,"numbikesavailable":4,"mechanical":1,"ebike":3,"is_renting":"OUI","is_returning":"OUI","duedate":"2023-12-05T16:06:09+01:00","nom_arrondissement_communes":"Le Kremlin-Bic\u00eatre","code_insee_commune":null}},{"type":"Feature","geometry":{"type":"Point","coordinates":[2.383553994571467,48.858688774062955]},"properties":{"stationcode":"11023","name":"Saint-Maur - Roquette","is_installed":"OUI","capacity":46,"numdocksavailable":38,"numbikesavailable":7,"mechanical":1,"ebike":6,"is_renting":"OUI","is_returning":"OUI","duedate":"2023-12-05T16:04:25+01:00","nom_arrondissement_communes":"Paris","code_insee_commune":null}},{"type":"Feature","geometry":{"type":"Point","coordinates":[2.3035024699104,48.81217465201]},"properties":{"stationcode":"21212","name":"Marne - Germain Dardan","is_installed":"OUI","capacity":22,"numdocksavailable":12,"numbikesavailable":10,"mechanical":2,"ebike":8,"is_renting":"OUI","is_returning":"OUI","duedate":"2023-12-05T16:01:21+01:00","nom_arrondissement_communes":"Montrouge","code_insee_commune":null}},{"type":"Feature","geometry":{"type":"Point","coordinates":[2.5382421165704727,48.80889533774377]},"properties":{"stationcode":"45003","name":"11 Novembre 1918 - 8 Mai 1945","is_installed":"OUI","capacity":36,"numdocksavailable":14,"numbikesavailable":22,"mechanical":9,"ebike":13,"is_renting":"OUI","is_returning":"OUI","duedate":"2023-12-05T16:05:26+01:00","nom_arrondissement_communes":"Champigny-sur-Marne","code_insee_commune":null}},{"type":"Feature","geometry":{"type":"Point","coordinates":[2.275374233722687,48.83769531916335]},"properties":{"stationcode":"15104","name":"H\u00f4pital Europ\u00e9en Georges Pompidou","is_installed":"OUI","capacity":64,"numdocksavailable":8,"numbikesavailable":56,"mechanical":53,"ebike":3,"is_renting":"OUI","is_returning":"OUI","duedate":"2023-12-05T16:07:28+01:00","nom_arrondissement_communes":"Paris","code_insee_commune":null}},{"type":"Feature","geometry":{"type":"Point","coordinates":[2.3082953318953514,48.874746047357135]},"properties":{"stationcode":"8034","name":"Berri - Haussmann","is_installed":"OUI","capacity":35,"numdocksavailable":4,"numbikesavailable":31,"mechanical":11,"ebike":20,"is_renting":"OUI","is_returning":"OUI","duedate":"2023-12-05T16:05:23+01:00","nom_arrondissement_communes":"Paris","code_insee_commune":null}},{"type":"Feature","geometry":{"type":"Point","coordinates":[2.3413893,48.8417514]},"properties":{"stationcode":"5004","name":"Saint-Jacques - Val de Gr\u00e2ce","is_installed":"OUI","capacity":19,"numdocksavailable":2,"numbikesavailable":17,"mechanical":3,"ebike":14,"is_renting":"OUI","is_returning":"OUI","duedate":"2023-12-05T16:05:47+01:00","nom_arrondissement_communes":"Paris","code_insee_commune":null}},{"type":"Feature","geometry":{"type":"Point","coordinates":[2.3464982619671075,48.84702057165222]},"properties":{"stationcode":"5032","name":"Panth\u00e9on - Valette","is_installed":"OUI","capacity":39,"numdocksavailable":10,"numbikesavailable":29,"mechanical":4,"ebike":25,"is_renting":"OUI","is_returning":"OUI","duedate":"2023-12-05T16:07:07+01:00","nom_arrondissement_communes":"Paris","code_insee_commune":null}},{"type":"Feature","geometry":{"type":"Point","coordinates":[2.3919698596000676,48.88467214209463]},"properties":{"stationcode":"19103","name":"Manin - Carri\u00e8res d'Am\u00e9rique","is_installed":"OUI","capacity":20,"numdocksavailable":17,"numbikesavailable":3,"mechanical":0,"ebike":3,"is_renting":"OUI","is_returning":"OUI","duedate":"2023-12-05T16:05:33+01:00","nom_arrondissement_communes":"Paris","code_insee_commune":null}},{"type":"Feature","geometry":{"type":"Point","coordinates":[2.392039597034455,48.872010281270974]},"properties":{"stationcode":"20042","name":"Pyr\u00e9n\u00e9es - Emmery","is_installed":"OUI","capacity":40,"numdocksavailable":38,"numbikesavailable":2,"mechanical":0,"ebike":2,"is_renting":"OUI","is_returning":"OUI","duedate":"2023-12-05T16:04:15+01:00","nom_arrondissement_communes":"Paris","code_insee_commune":null}},{"type":"Feature","geometry":{"type":"Point","coordinates":[2.4034014344215398,48.77093586667601]},"properties":{"stationcode":"46003","name":"Conservatoire de Musique","is_installed":"OUI","capacity":25,"numdocksavailable":9,"numbikesavailable":16,"mechanical":14,"ebike":2,"is_renting":"OUI","is_returning":"OUI","duedate":"2023-12-05T16:04:15+01:00","nom_arrondissement_communes":"Choisy-le-Roi","code_insee_commune":null}},{"type":"Feature","geometry":{"type":"Point","coordinates":[2.2952447086572647,48.88364782887555]},"properties":{"stationcode":"17030","name":"Pereire - Rennequin","is_installed":"OUI","capacity":23,"numdocksavailable":15,"numbikesavailable":7,"mechanical":5,"ebike":2,"is_renting":"OUI","is_returning":"OUI","duedate":"2023-12-05T16:03:45+01:00","nom_arrondissement_communes":"Paris","code_insee_commune":null}},{"type":"Feature","geometry":{"type":"Point","coordinates":[2.3448138346607,48.837668272811]},"properties":{"stationcode":"13001","name":"Port-Royal - H\u00f4pital du Val-de-Gr\u00e2ce","is_installed":"OUI","capacity":18,"numdocksavailable":8,"numbikesavailable":9,"mechanical":6,"ebike":3,"is_renting":"OUI","is_returning":"OUI","duedate":"2023-12-05T16:04:52+01:00","nom_arrondissement_communes":"Paris","code_insee_commune":null}},{"type":"Feature","geometry":{"type":"Point","coordinates":[2.329337755887181,48.84479928858768]},"properties":{"stationcode":"6006","name":"Notre-Dame-des-Champs - Stanislas","is_installed":"OUI","capacity":19,"numdocksavailable":16,"numbikesavailable":3,"mechanical":1,"ebike":2,"is_renting":"OUI","is_returning":"OUI","duedate":"2023-12-05T16:07:15+01:00","nom_arrondissement_communes":"Paris","code_insee_commune":null}},{"type":"Feature","geometry":{"type":"Point","coordinates":[2.3025491823859,48.864920982538]},"properties":{"stationcode":"8045","name":"Place de la Reine Astrid","is_installed":"OUI","capacity":54,"numdocksavailable":5,"numbikesavailable":49,"mechanical":28,"ebike":21,"is_renting":"OUI","is_returning":"OUI","duedate":"2023-12-05T16:07:27+01:00","nom_arrondissement_communes":"Paris","code_insee_commune":null}},{"type":"Feature","geometry":{"type":"Point","coordinates":[2.3772348091006,48.862147844548]},"properties":{"stationcode":"11027","name":"Saint-Ambroise - Parmentier","is_installed":"OUI","capacity":38,"numdocksavailable":32,"numbikesavailable":3,"mechanical":3,"ebike":0,"is_renting":"OUI","is_returning":"OUI","duedate":"2023-12-05T16:06:46+01:00","nom_arrondissement_communes":"Paris","code_insee_commune":null}},{"type":"Feature","geometry":{"type":"Point","coordinates":[2.3319872841238976,48.89401874744574]},"properties":{"stationcode":"18028","name":"Championnet - Vauvenargues","is_installed":"OUI","capacity":33,"numdocksavailable":26,"numbikesavailable":4,"mechanical":0,"ebike":4,"is_renting":"OUI","is_returning":"OUI","duedate":"2023-12-05T16:06:45+01:00","nom_arrondissement_communes":"Paris","code_insee_commune":null}},{"type":"Feature","geometry":{"type":"Point","coordinates":[2.4586871266365056,48.82237977153955]},"properties":{"stationcode":"12128","name":"Pyramide - Ecole du Breuil","is_installed":"OUI","capacity":34,"numdocksavailable":20,"numbikesavailable":14,"mechanical":9,"ebike":5,"is_renting":"OUI","is_returning":"OUI","duedate":"2023-12-05T16:04:46+01:00","nom_arrondissement_communes":"Paris","code_insee_commune":null}},{"type":"Feature","geometry":{"type":"Point","coordinates":[2.39090770483017,48.81411442356866]},"properties":{"stationcode":"42014","name":"Place Marcel Cachin","is_installed":"OUI","capacity":32,"numdocksavailable":3,"numbikesavailable":29,"mechanical":28,"ebike":1,"is_renting":"OUI","is_returning":"OUI","duedate":"2023-12-05T16:07:30+01:00","nom_arrondissement_communes":"Ivry-sur-Seine","code_insee_commune":null}},{"type":"Feature","geometry":{"type":"Point","coordinates":[2.3826304078102116,48.8750898883217]},"properties":{"stationcode":"19101","name":"Square Simon Bolivar","is_installed":"OUI","capacity":24,"numdocksavailable":19,"numbikesavailable":3,"mechanical":1,"ebike":2,"is_renting":"OUI","is_returning":"OUI","duedate":"2023-12-05T16:03:25+01:00","nom_arrondissement_communes":"Paris","code_insee_commune":null}},{"type":"Feature","geometry":{"type":"Point","coordinates":[2.3107116669416428,48.825218683556734]},"properties":{"stationcode":"14106","name":"Marc Sangnier - Porte de Vanves","is_installed":"OUI","capacity":21,"numdocksavailable":20,"numbikesavailable":0,"mechanical":0,"ebike":0,"is_renting":"OUI","is_returning":"OUI","duedate":"2023-12-05T15:59:50+01:00","nom_arrondissement_communes":"Paris","code_insee_commune":null}},{"type":"Feature","geometry":{"type":"Point","coordinates":[2.3312794080411474,48.83681733526843]},"properties":{"stationcode":"14003","name":"Schoelcher - Raspail","is_installed":"OUI","capacity":50,"numdocksavailable":47,"numbikesavailable":3,"mechanical":1,"ebike":2,"is_renting":"OUI","is_returning":"OUI","duedate":"2023-12-05T16:05:58+01:00","nom_arrondissement_communes":"Paris","code_insee_commune":null}},{"type":"Feature","geometry":{"type":"Point","coordinates":[2.298078276995073,48.81527009991819]},"properties":{"stationcode":"22406","name":"Guy M\u00f4quet - Etienne Dolet","is_installed":"OUI","capacity":23,"numdocksavailable":21,"numbikesavailable":2,"mechanical":0,"ebike":2,"is_renting":"OUI","is_returning":"OUI","duedate":"2023-12-05T16:05:04+01:00","nom_arrondissement_communes":"Malakoff","code_insee_commune":null}},{"type":"Feature","geometry":{"type":"Point","coordinates":[2.4071189761161804,48.764615483395254]},"properties":{"stationcode":"46002","name":"Rouget de Lisle","is_installed":"OUI","capacity":35,"numdocksavailable":13,"numbikesavailable":22,"mechanical":12,"ebike":10,"is_renting":"OUI","is_returning":"OUI","duedate":"2023-12-05T16:06:25+01:00","nom_arrondissement_communes":"Choisy-le-Roi","code_insee_commune":null}},{"type":"Feature","geometry":{"type":"Point","coordinates":[2.396005728053061,48.90713441498779]},"properties":{"stationcode":"35002","name":"Jean Jaur\u00e8s - Presles","is_installed":"OUI","capacity":30,"numdocksavailable":22,"numbikesavailable":8,"mechanical":3,"ebike":5,"is_renting":"OUI","is_returning":"OUI","duedate":"2023-12-05T15:58:59+01:00","nom_arrondissement_communes":"Pantin","code_insee_commune":null}},{"type":"Feature","geometry":{"type":"Point","coordinates":[2.3692541,48.8667175]},"properties":{"stationcode":"11113","name":"Richard Lenoir - Republique","is_installed":"OUI","capacity":58,"numdocksavailable":50,"numbikesavailable":7,"mechanical":7,"ebike":0,"is_renting":"OUI","is_returning":"OUI","duedate":"2023-12-05T16:06:55+01:00","nom_arrondissement_communes":"Paris","code_insee_commune":null}},{"type":"Feature","geometry":{"type":"Point","coordinates":[2.3490573929687,48.890451120965]},"properties":{"stationcode":"18022","name":"Marcadet - Barb\u00e8s","is_installed":"OUI","capacity":37,"numdocksavailable":32,"numbikesavailable":2,"mechanical":0,"ebike":2,"is_renting":"OUI","is_returning":"OUI","duedate":"2023-12-05T16:06:18+01:00","nom_arrondissement_communes":"Paris","code_insee_commune":null}},{"type":"Feature","geometry":{"type":"Point","coordinates":[2.359801238597928,48.875034655883944]},"properties":{"stationcode":"10016","name":"R\u00e9collets - Square Villemin","is_installed":"OUI","capacity":17,"numdocksavailable":15,"numbikesavailable":1,"mechanical":0,"ebike":1,"is_renting":"OUI","is_returning":"OUI","duedate":"2023-12-05T16:07:20+01:00","nom_arrondissement_communes":"Paris","code_insee_commune":null}},{"type":"Feature","geometry":{"type":"Point","coordinates":[2.301303138307601,48.87614039826388]},"properties":{"stationcode":"8054","name":"Bertie Albrecht - Hoche","is_installed":"OUI","capacity":32,"numdocksavailable":21,"numbikesavailable":11,"mechanical":3,"ebike":8,"is_renting":"OUI","is_returning":"OUI","duedate":"2023-12-05T16:06:47+01:00","nom_arrondissement_communes":"Paris","code_insee_commune":null}},{"type":"Feature","geometry":{"type":"Point","coordinates":[2.4329931,48.8687591]},"properties":{"stationcode":"31009","name":"Place Du G\u00e9n\u00e9ral De Gaulle","is_installed":"OUI","capacity":26,"numdocksavailable":21,"numbikesavailable":4,"mechanical":0,"ebike":4,"is_renting":"OUI","is_returning":"OUI","duedate":"2023-12-05T16:01:50+01:00","nom_arrondissement_communes":"Montreuil","code_insee_commune":null}},{"type":"Feature","geometry":{"type":"Point","coordinates":[2.281037718057633,48.84240765130395]},"properties":{"stationcode":"15109","name":"Cevennes - Bergers","is_installed":"OUI","capacity":29,"numdocksavailable":18,"numbikesavailable":11,"mechanical":5,"ebike":6,"is_renting":"OUI","is_returning":"OUI","duedate":"2023-12-05T16:06:30+01:00","nom_arrondissement_communes":"Paris","code_insee_commune":null}},{"type":"Feature","geometry":{"type":"Point","coordinates":[2.479562651149885,48.83649602312711]},"properties":{"stationcode":"41302","name":"Charles de Gaulle - Beaut\u00e9","is_installed":"OUI","capacity":49,"numdocksavailable":43,"numbikesavailable":6,"mechanical":2,"ebike":4,"is_renting":"OUI","is_returning":"OUI","duedate":"2023-12-05T16:07:05+01:00","nom_arrondissement_communes":"Nogent-sur-Marne","code_insee_commune":null}},{"type":"Feature","geometry":{"type":"Point","coordinates":[2.3145738624448158,48.81111581390707]},"properties":{"stationcode":"21209","name":"Moli\u00e8re - R\u00e9publique","is_installed":"OUI","capacity":30,"numdocksavailable":27,"numbikesavailable":3,"mechanical":1,"ebike":2,"is_renting":"OUI","is_returning":"OUI","duedate":"2023-12-05T15:59:26+01:00","nom_arrondissement_communes":"Montrouge","code_insee_commune":null}},{"type":"Feature","geometry":{"type":"Point","coordinates":[2.3502873256803,48.848225572724]},"properties":{"stationcode":"5018","name":"Mutualit\u00e9","is_installed":"OUI","capacity":37,"numdocksavailable":18,"numbikesavailable":19,"mechanical":13,"ebike":6,"is_renting":"OUI","is_returning":"OUI","duedate":"2023-12-05T16:06:10+01:00","nom_arrondissement_communes":"Paris","code_insee_commune":null}},{"type":"Feature","geometry":{"type":"Point","coordinates":[2.2416803240776066,48.83495885166784]},"properties":{"stationcode":"21005","name":"H\u00f4tel de Ville de Boulogne Billancourt","is_installed":"OUI","capacity":26,"numdocksavailable":6,"numbikesavailable":20,"mechanical":11,"ebike":9,"is_renting":"OUI","is_returning":"OUI","duedate":"2023-12-05T16:06:26+01:00","nom_arrondissement_communes":"Boulogne-Billancourt","code_insee_commune":null}},{"type":"Feature","geometry":{"type":"Point","coordinates":[2.3814103,48.9155156]},"properties":{"stationcode":"33017","name":"Anatole France - President Roosevelt","is_installed":"OUI","capacity":29,"numdocksavailable":23,"numbikesavailable":5,"mechanical":2,"ebike":3,"is_renting":"OUI","is_returning":"OUI","duedate":"2023-12-05T16:05:24+01:00","nom_arrondissement_communes":"Aubervilliers","code_insee_commune":null}},{"type":"Feature","geometry":{"type":"Point","coordinates":[2.402843534946442,48.89110239200789]},"properties":{"stationcode":"35010","name":"Hoche - Jean Lolive","is_installed":"OUI","capacity":24,"numdocksavailable":14,"numbikesavailable":7,"mechanical":3,"ebike":4,"is_renting":"OUI","is_returning":"OUI","duedate":"2023-12-05T16:06:27+01:00","nom_arrondissement_communes":"Pantin","code_insee_commune":null}},{"type":"Feature","geometry":{"type":"Point","coordinates":[2.2713854536414146,48.83372430280548]},"properties":{"stationcode":"15042","name":"Henry Farman","is_installed":"OUI","capacity":16,"numdocksavailable":1,"numbikesavailable":15,"mechanical":7,"ebike":8,"is_renting":"OUI","is_returning":"OUI","duedate":"2023-12-05T16:06:21+01:00","nom_arrondissement_communes":"Paris","code_insee_commune":null}},{"type":"Feature","geometry":{"type":"Point","coordinates":[2.2930556908249855,48.83659148147257]},"properties":{"stationcode":"15133","name":"Saint Lambert - Blomet","is_installed":"OUI","capacity":27,"numdocksavailable":16,"numbikesavailable":9,"mechanical":3,"ebike":6,"is_renting":"OUI","is_returning":"OUI","duedate":"2023-12-05T15:57:49+01:00","nom_arrondissement_communes":"Paris","code_insee_commune":null}},{"type":"Feature","geometry":{"type":"Point","coordinates":[2.38959476351738,48.87403113727167]},"properties":{"stationcode":"20112","name":"Jourdain - Place des Grandes Rigoles","is_installed":"OUI","capacity":22,"numdocksavailable":21,"numbikesavailable":1,"mechanical":0,"ebike":1,"is_renting":"OUI","is_returning":"OUI","duedate":"2023-12-05T16:04:22+01:00","nom_arrondissement_communes":"Paris","code_insee_commune":null}},{"type":"Feature","geometry":{"type":"Point","coordinates":[2.3896131366845,48.859358523593]},"properties":{"stationcode":"20131","name":"Repos - Cimeti\u00e8re du P\u00e8re Lachaise","is_installed":"OUI","capacity":33,"numdocksavailable":32,"numbikesavailable":0,"mechanical":0,"ebike":0,"is_renting":"OUI","is_returning":"OUI","duedate":"2023-12-05T16:02:17+01:00","nom_arrondissement_communes":"Paris","code_insee_commune":null}},{"type":"Feature","geometry":{"type":"Point","coordinates":[2.3635598,48.8927825]},"properties":{"stationcode":"18011","name":"Pajol - Place Herbert","is_installed":"OUI","capacity":39,"numdocksavailable":34,"numbikesavailable":4,"mechanical":0,"ebike":4,"is_renting":"OUI","is_returning":"OUI","duedate":"2023-12-05T16:07:34+01:00","nom_arrondissement_communes":"Paris","code_insee_commune":null}},{"type":"Feature","geometry":{"type":"Point","coordinates":[2.3654810339212,48.866830968942]},"properties":{"stationcode":"11046","name":"Place de la R\u00e9publique - Voltaire","is_installed":"OUI","capacity":19,"numdocksavailable":12,"numbikesavailable":7,"mechanical":7,"ebike":0,"is_renting":"OUI","is_returning":"OUI","duedate":"2023-12-05T16:06:18+01:00","nom_arrondissement_communes":"Paris","code_insee_commune":null}},{"type":"Feature","geometry":{"type":"Point","coordinates":[2.445141971111298,48.84780306364685]},"properties":{"stationcode":"43008","name":"Fontenay - Lib\u00e9ration","is_installed":"OUI","capacity":25,"numdocksavailable":22,"numbikesavailable":3,"mechanical":2,"ebike":1,"is_renting":"OUI","is_returning":"OUI","duedate":"2023-12-05T16:06:39+01:00","nom_arrondissement_communes":"Vincennes","code_insee_commune":null}},{"type":"Feature","geometry":{"type":"Point","coordinates":[2.4025777,48.790114]},"properties":{"stationcode":"44003","name":"Gabriel P\u00e9ri - Danielle Casanova","is_installed":"OUI","capacity":20,"numdocksavailable":10,"numbikesavailable":10,"mechanical":9,"ebike":1,"is_renting":"OUI","is_returning":"OUI","duedate":"2023-12-05T16:04:30+01:00","nom_arrondissement_communes":"Vitry-sur-Seine","code_insee_commune":null}},{"type":"Feature","geometry":{"type":"Point","coordinates":[2.407338917255402,48.88633710236977]},"properties":{"stationcode":"33102","name":"Gabriel P\u00e9ri - Francisco Ferrer","is_installed":"OUI","capacity":18,"numdocksavailable":11,"numbikesavailable":5,"mechanical":2,"ebike":3,"is_renting":"OUI","is_returning":"OUI","duedate":"2023-12-05T16:03:17+01:00","nom_arrondissement_communes":"Le Pr\u00e9-Saint-Gervais","code_insee_commune":null}},{"type":"Feature","geometry":{"type":"Point","coordinates":[2.3646667979455587,48.784527937293184]},"properties":{"stationcode":"48010","name":"Karl Marx","is_installed":"OUI","capacity":16,"numdocksavailable":6,"numbikesavailable":10,"mechanical":4,"ebike":6,"is_renting":"OUI","is_returning":"OUI","duedate":"2023-12-05T16:00:33+01:00","nom_arrondissement_communes":"Villejuif","code_insee_commune":null}},{"type":"Feature","geometry":{"type":"Point","coordinates":[2.3821302,48.7985844]},"properties":{"stationcode":"44006","name":"Concorde - Stalingrad","is_installed":"OUI","capacity":35,"numdocksavailable":26,"numbikesavailable":9,"mechanical":6,"ebike":3,"is_renting":"OUI","is_returning":"OUI","duedate":"2023-12-05T16:04:58+01:00","nom_arrondissement_communes":"Vitry-sur-Seine","code_insee_commune":null}},{"type":"Feature","geometry":{"type":"Point","coordinates":[2.306235730648041,48.787553654715644]},"properties":{"stationcode":"22203","name":"Tertres - Fontaine","is_installed":"OUI","capacity":28,"numdocksavailable":27,"numbikesavailable":0,"mechanical":0,"ebike":0,"is_renting":"OUI","is_returning":"OUI","duedate":"2023-12-05T16:02:34+01:00","nom_arrondissement_communes":"Bagneux","code_insee_commune":null}},{"type":"Feature","geometry":{"type":"Point","coordinates":[2.2978776320815,48.852828153442]},"properties":{"stationcode":"15105","name":"F\u00e9d\u00e9ration - Suffren","is_installed":"OUI","capacity":25,"numdocksavailable":23,"numbikesavailable":2,"mechanical":2,"ebike":0,"is_renting":"OUI","is_returning":"OUI","duedate":"2023-12-05T16:01:20+01:00","nom_arrondissement_communes":"Paris","code_insee_commune":null}},{"type":"Feature","geometry":{"type":"Point","coordinates":[2.37611478491,48.86531608707]},"properties":{"stationcode":"11030","name":"Oberkampf - R\u00e9publique","is_installed":"OUI","capacity":24,"numdocksavailable":23,"numbikesavailable":1,"mechanical":0,"ebike":1,"is_renting":"OUI","is_returning":"OUI","duedate":"2023-12-05T16:06:55+01:00","nom_arrondissement_communes":"Paris","code_insee_commune":null}},{"type":"Feature","geometry":{"type":"Point","coordinates":[2.3860743641853337,48.877436681515796]},"properties":{"stationcode":"19120","name":"Carducci - Place Hannah Arendt","is_installed":"OUI","capacity":27,"numdocksavailable":25,"numbikesavailable":1,"mechanical":0,"ebike":1,"is_renting":"OUI","is_returning":"OUI","duedate":"2023-12-05T15:58:38+01:00","nom_arrondissement_communes":"Paris","code_insee_commune":null}},{"type":"Feature","geometry":{"type":"Point","coordinates":[2.415283620357514,48.87451538963655]},"properties":{"stationcode":"31708","name":"Noisy le Sec - Jean-Baptiste Cl\u00e9ment","is_installed":"OUI","capacity":22,"numdocksavailable":20,"numbikesavailable":2,"mechanical":0,"ebike":2,"is_renting":"OUI","is_returning":"OUI","duedate":"2023-12-05T16:00:44+01:00","nom_arrondissement_communes":"Bagnolet","code_insee_commune":null}},{"type":"Feature","geometry":{"type":"Point","coordinates":[2.3056878894567,48.828012849445]},"properties":{"stationcode":"14138","name":"Porte de Vanves","is_installed":"OUI","capacity":32,"numdocksavailable":29,"numbikesavailable":3,"mechanical":1,"ebike":2,"is_renting":"OUI","is_returning":"OUI","duedate":"2023-12-05T16:05:52+01:00","nom_arrondissement_communes":"Paris","code_insee_commune":null}},{"type":"Feature","geometry":{"type":"Point","coordinates":[2.4137883,48.8835462]},"properties":{"stationcode":"35020","name":"Marcelle - Thalie","is_installed":"OUI","capacity":20,"numdocksavailable":16,"numbikesavailable":1,"mechanical":0,"ebike":1,"is_renting":"OUI","is_returning":"OUI","duedate":"2023-12-05T15:57:39+01:00","nom_arrondissement_communes":"Pantin","code_insee_commune":null}},{"type":"Feature","geometry":{"type":"Point","coordinates":[2.415081394834419,48.843949064031825]},"properties":{"stationcode":"12114","name":"Victor Hugo - Jeanne Jugan","is_installed":"OUI","capacity":28,"numdocksavailable":24,"numbikesavailable":4,"mechanical":1,"ebike":3,"is_renting":"OUI","is_returning":"OUI","duedate":"2023-12-05T16:01:52+01:00","nom_arrondissement_communes":"Paris","code_insee_commune":null}},{"type":"Feature","geometry":{"type":"Point","coordinates":[2.3026576638221745,48.821475594736775]},"properties":{"stationcode":"22402","name":"Jean Jaur\u00e8s - Salvador Allende","is_installed":"OUI","capacity":43,"numdocksavailable":40,"numbikesavailable":2,"mechanical":1,"ebike":1,"is_renting":"OUI","is_returning":"OUI","duedate":"2023-12-05T15:59:38+01:00","nom_arrondissement_communes":"Malakoff","code_insee_commune":null}},{"type":"Feature","geometry":{"type":"Point","coordinates":[2.4787822365760808,48.84706173362218]},"properties":{"stationcode":"41209","name":"Cimeti\u00e8re de Fontenay-sous-Bois","is_installed":"OUI","capacity":15,"numdocksavailable":9,"numbikesavailable":6,"mechanical":2,"ebike":4,"is_renting":"OUI","is_returning":"OUI","duedate":"2023-12-05T16:04:44+01:00","nom_arrondissement_communes":"Fontenay-sous-Bois","code_insee_commune":null}},{"type":"Feature","geometry":{"type":"Point","coordinates":[2.2460845112800603,48.83802015441127]},"properties":{"stationcode":"21008","name":"Victor Hugo - Galli\u00e9ni","is_installed":"OUI","capacity":34,"numdocksavailable":28,"numbikesavailable":4,"mechanical":3,"ebike":1,"is_renting":"OUI","is_returning":"OUI","duedate":"2023-12-05T16:07:18+01:00","nom_arrondissement_communes":"Boulogne-Billancourt","code_insee_commune":null}},{"type":"Feature","geometry":{"type":"Point","coordinates":[2.271184623241425,48.818144834008976]},"properties":{"stationcode":"21312","name":"Lucie Aubrac - Fort","is_installed":"OUI","capacity":30,"numdocksavailable":29,"numbikesavailable":1,"mechanical":0,"ebike":1,"is_renting":"OUI","is_returning":"OUI","duedate":"2023-12-05T16:06:20+01:00","nom_arrondissement_communes":"Issy-les-Moulineaux","code_insee_commune":null}},{"type":"Feature","geometry":{"type":"Point","coordinates":[2.290781380114821,48.86741186571367]},"properties":{"stationcode":"16008","name":"Galil\u00e9e - Kl\u00e9ber","is_installed":"OUI","capacity":32,"numdocksavailable":22,"numbikesavailable":10,"mechanical":3,"ebike":7,"is_renting":"OUI","is_returning":"OUI","duedate":"2023-12-05T16:05:58+01:00","nom_arrondissement_communes":"Paris","code_insee_commune":null}},{"type":"Feature","geometry":{"type":"Point","coordinates":[2.3722528328789854,48.87174684930295]},"properties":{"stationcode":"10024","name":"Buisson Saint-Louis - Saint-Maur","is_installed":"OUI","capacity":19,"numdocksavailable":16,"numbikesavailable":3,"mechanical":1,"ebike":2,"is_renting":"OUI","is_returning":"OUI","duedate":"2023-12-05T16:01:49+01:00","nom_arrondissement_communes":"Paris","code_insee_commune":null}},{"type":"Feature","geometry":{"type":"Point","coordinates":[2.384273745805574,48.82837482809675]},"properties":{"stationcode":"13050","name":"Quai Panhard et Levassor","is_installed":"OUI","capacity":57,"numdocksavailable":8,"numbikesavailable":49,"mechanical":45,"ebike":4,"is_renting":"OUI","is_returning":"OUI","duedate":"2023-12-05T16:04:02+01:00","nom_arrondissement_communes":"Paris","code_insee_commune":null}},{"type":"Feature","geometry":{"type":"Point","coordinates":[2.2917001576821,48.886062068226]},"properties":{"stationcode":"17203","name":"Place de la Porte de Champeret","is_installed":"NON","capacity":0,"numdocksavailable":0,"numbikesavailable":0,"mechanical":0,"ebike":0,"is_renting":"NON","is_returning":"NON","duedate":"2023-07-25T12:08:24+02:00","nom_arrondissement_communes":"Paris","code_insee_commune":null}},{"type":"Feature","geometry":{"type":"Point","coordinates":[2.297508493065834,48.844835471244416]},"properties":{"stationcode":"15021","name":"Joseph Liouville - Croix Nivert","is_installed":"OUI","capacity":64,"numdocksavailable":60,"numbikesavailable":4,"mechanical":1,"ebike":3,"is_renting":"OUI","is_returning":"OUI","duedate":"2023-12-05T16:01:24+01:00","nom_arrondissement_communes":"Paris","code_insee_commune":null}},{"type":"Feature","geometry":{"type":"Point","coordinates":[2.322616316378116,48.87590240712654]},"properties":{"stationcode":"8017","name":"Rocher - Laborde","is_installed":"OUI","capacity":65,"numdocksavailable":51,"numbikesavailable":14,"mechanical":13,"ebike":1,"is_renting":"OUI","is_returning":"OUI","duedate":"2023-12-05T16:06:46+01:00","nom_arrondissement_communes":"Paris","code_insee_commune":null}},{"type":"Feature","geometry":{"type":"Point","coordinates":[2.356855627529275,48.88611466796807]},"properties":{"stationcode":"18009","name":"Jean-Fran\u00e7ois L\u00e9pine - Stephenson","is_installed":"OUI","capacity":22,"numdocksavailable":22,"numbikesavailable":0,"mechanical":0,"ebike":0,"is_renting":"OUI","is_returning":"OUI","duedate":"2023-12-05T16:03:24+01:00","nom_arrondissement_communes":"Paris","code_insee_commune":null}},{"type":"Feature","geometry":{"type":"Point","coordinates":[2.2877392172813416,48.83796366147599]},"properties":{"stationcode":"15054","name":"Lecourbe - Jean Maridor","is_installed":"OUI","capacity":19,"numdocksavailable":12,"numbikesavailable":7,"mechanical":6,"ebike":1,"is_renting":"OUI","is_returning":"OUI","duedate":"2023-12-05T16:01:26+01:00","nom_arrondissement_communes":"Paris","code_insee_commune":null}},{"type":"Feature","geometry":{"type":"Point","coordinates":[2.261394560337067,48.886591074487995]},"properties":{"stationcode":"22003","name":"Beffroy","is_installed":"OUI","capacity":26,"numdocksavailable":4,"numbikesavailable":20,"mechanical":13,"ebike":7,"is_renting":"OUI","is_returning":"OUI","duedate":"2023-12-05T16:07:16+01:00","nom_arrondissement_communes":"Neuilly-sur-Seine","code_insee_commune":null}},{"type":"Feature","geometry":{"type":"Point","coordinates":[2.294612042605877,48.84993035512154]},"properties":{"stationcode":"15106","name":"Grenelle - Violet","is_installed":"OUI","capacity":35,"numdocksavailable":23,"numbikesavailable":12,"mechanical":11,"ebike":1,"is_renting":"OUI","is_returning":"OUI","duedate":"2023-12-05T16:02:01+01:00","nom_arrondissement_communes":"Paris","code_insee_commune":null}},{"type":"Feature","geometry":{"type":"Point","coordinates":[2.3750124,48.8644954]},"properties":{"stationcode":"11105","name":"Parmentier - R\u00e9publique","is_installed":"OUI","capacity":50,"numdocksavailable":48,"numbikesavailable":1,"mechanical":1,"ebike":0,"is_renting":"OUI","is_returning":"OUI","duedate":"2023-12-05T16:03:51+01:00","nom_arrondissement_communes":"Paris","code_insee_commune":null}},{"type":"Feature","geometry":{"type":"Point","coordinates":[2.3293121159076686,48.831632518292565]},"properties":{"stationcode":"14008","name":"Mouton Duvernet - G\u00e9n\u00e9ral Leclerc","is_installed":"OUI","capacity":39,"numdocksavailable":32,"numbikesavailable":5,"mechanical":0,"ebike":5,"is_renting":"OUI","is_returning":"OUI","duedate":"2023-12-05T16:06:57+01:00","nom_arrondissement_communes":"Paris","code_insee_commune":null}},{"type":"Feature","geometry":{"type":"Point","coordinates":[2.433383166790009,48.847563015126106]},"properties":{"stationcode":"43005","name":"Gare RER de Vincennes","is_installed":"OUI","capacity":51,"numdocksavailable":46,"numbikesavailable":5,"mechanical":1,"ebike":4,"is_renting":"OUI","is_returning":"OUI","duedate":"2023-12-05T16:07:22+01:00","nom_arrondissement_communes":"Vincennes","code_insee_commune":null}},{"type":"Feature","geometry":{"type":"Point","coordinates":[2.3445946723222733,48.84264375274712]},"properties":{"stationcode":"5124","name":"Erasme - Ulm","is_installed":"OUI","capacity":24,"numdocksavailable":15,"numbikesavailable":8,"mechanical":0,"ebike":8,"is_renting":"OUI","is_returning":"OUI","duedate":"2023-12-05T16:07:22+01:00","nom_arrondissement_communes":"Paris","code_insee_commune":null}},{"type":"Feature","geometry":{"type":"Point","coordinates":[2.273029983043671,48.85034821320644]},"properties":{"stationcode":"16136","name":"Th\u00e9ophile Gautier - Fran\u00e7ois Millet","is_installed":"OUI","capacity":30,"numdocksavailable":14,"numbikesavailable":15,"mechanical":12,"ebike":3,"is_renting":"OUI","is_returning":"OUI","duedate":"2023-12-05T16:06:42+01:00","nom_arrondissement_communes":"Paris","code_insee_commune":null}},{"type":"Feature","geometry":{"type":"Point","coordinates":[2.326124420314341,48.88794016394694]},"properties":{"stationcode":"18046","name":"Etienne Jodelle - Saint Ouen","is_installed":"OUI","capacity":33,"numdocksavailable":30,"numbikesavailable":2,"mechanical":0,"ebike":2,"is_renting":"OUI","is_returning":"OUI","duedate":"2023-12-05T16:01:17+01:00","nom_arrondissement_communes":"Paris","code_insee_commune":null}},{"type":"Feature","geometry":{"type":"Point","coordinates":[2.2971323132515,48.874836457837]},"properties":{"stationcode":"8057","name":"Hoche - Tilsitt","is_installed":"OUI","capacity":33,"numdocksavailable":27,"numbikesavailable":6,"mechanical":1,"ebike":5,"is_renting":"OUI","is_returning":"OUI","duedate":"2023-12-05T16:03:27+01:00","nom_arrondissement_communes":"Paris","code_insee_commune":null}},{"type":"Feature","geometry":{"type":"Point","coordinates":[2.4677312,48.876111]},"properties":{"stationcode":"31102","name":"Boissi\u00e8re - Etienne Dolet","is_installed":"OUI","capacity":21,"numdocksavailable":18,"numbikesavailable":1,"mechanical":1,"ebike":0,"is_renting":"OUI","is_returning":"OUI","duedate":"2023-12-05T16:00:52+01:00","nom_arrondissement_communes":"Montreuil","code_insee_commune":null}},{"type":"Feature","geometry":{"type":"Point","coordinates":[2.2383723043644914,48.89790972494496]},"properties":{"stationcode":"24001","name":"Arche - L\u00e9onard de Vinci","is_installed":"OUI","capacity":28,"numdocksavailable":10,"numbikesavailable":18,"mechanical":11,"ebike":7,"is_renting":"OUI","is_returning":"OUI","duedate":"2023-12-05T16:07:24+01:00","nom_arrondissement_communes":"Courbevoie","code_insee_commune":null}},{"type":"Feature","geometry":{"type":"Point","coordinates":[2.336716018617153,48.86703740186721]},"properties":{"stationcode":"2111","name":"Chabanais - Petits Champs","is_installed":"OUI","capacity":30,"numdocksavailable":6,"numbikesavailable":22,"mechanical":15,"ebike":7,"is_renting":"OUI","is_returning":"OUI","duedate":"2023-12-05T16:07:29+01:00","nom_arrondissement_communes":"Paris","code_insee_commune":null}},{"type":"Feature","geometry":{"type":"Point","coordinates":[2.2763770446181297,48.87991924860035]},"properties":{"stationcode":"22016","name":"Charles de Gaulle - Sablonville","is_installed":"OUI","capacity":26,"numdocksavailable":20,"numbikesavailable":6,"mechanical":3,"ebike":3,"is_renting":"OUI","is_returning":"OUI","duedate":"2023-12-05T16:00:11+01:00","nom_arrondissement_communes":"Neuilly-sur-Seine","code_insee_commune":null}},{"type":"Feature","geometry":{"type":"Point","coordinates":[2.3384983465075493,48.826701758539215]},"properties":{"stationcode":"14012","name":"Sibelle - Al\u00e9sia","is_installed":"OUI","capacity":25,"numdocksavailable":22,"numbikesavailable":1,"mechanical":0,"ebike":1,"is_renting":"OUI","is_returning":"OUI","duedate":"2023-12-05T16:05:06+01:00","nom_arrondissement_communes":"Paris","code_insee_commune":null}},{"type":"Feature","geometry":{"type":"Point","coordinates":[2.3210415244102482,48.82577028927573]},"properties":{"stationcode":"14136","name":"Auguste Cain - Jean Moulin","is_installed":"OUI","capacity":40,"numdocksavailable":37,"numbikesavailable":3,"mechanical":1,"ebike":2,"is_renting":"OUI","is_returning":"OUI","duedate":"2023-12-05T16:06:56+01:00","nom_arrondissement_communes":"Paris","code_insee_commune":null}},{"type":"Feature","geometry":{"type":"Point","coordinates":[2.3483952362828,48.872420063053]},"properties":{"stationcode":"10042","name":"Enghien - Faubourg Poissonni\u00e8re","is_installed":"OUI","capacity":33,"numdocksavailable":9,"numbikesavailable":23,"mechanical":16,"ebike":7,"is_renting":"OUI","is_returning":"OUI","duedate":"2023-12-05T16:06:39+01:00","nom_arrondissement_communes":"Paris","code_insee_commune":null}},{"type":"Feature","geometry":{"type":"Point","coordinates":[2.315848097205162,48.87372241291653]},"properties":{"stationcode":"8025","name":"Miromesnil - La Bo\u00e9tie","is_installed":"OUI","capacity":35,"numdocksavailable":5,"numbikesavailable":29,"mechanical":16,"ebike":13,"is_renting":"OUI","is_returning":"OUI","duedate":"2023-12-05T16:07:25+01:00","nom_arrondissement_communes":"Paris","code_insee_commune":null}},{"type":"Feature","geometry":{"type":"Point","coordinates":[2.333725690841675,48.821092374256104]},"properties":{"stationcode":"14124","name":"David Weill - Parc Montsouris","is_installed":"OUI","capacity":22,"numdocksavailable":22,"numbikesavailable":0,"mechanical":0,"ebike":0,"is_renting":"OUI","is_returning":"OUI","duedate":"2023-12-05T16:06:51+01:00","nom_arrondissement_communes":"Paris","code_insee_commune":null}},{"type":"Feature","geometry":{"type":"Point","coordinates":[2.4461565166711807,48.877141208359035]},"properties":{"stationcode":"32302","name":"Chemin Vert - Fraternit\u00e9","is_installed":"OUI","capacity":20,"numdocksavailable":14,"numbikesavailable":5,"mechanical":0,"ebike":5,"is_renting":"OUI","is_returning":"OUI","duedate":"2023-12-05T16:05:39+01:00","nom_arrondissement_communes":"Romainville","code_insee_commune":null}},{"type":"Feature","geometry":{"type":"Point","coordinates":[2.2811267160086417,48.836191728066666]},"properties":{"stationcode":"15110","name":"Place Robert Guillemard","is_installed":"OUI","capacity":24,"numdocksavailable":1,"numbikesavailable":23,"mechanical":20,"ebike":3,"is_renting":"OUI","is_returning":"OUI","duedate":"2023-12-05T16:06:18+01:00","nom_arrondissement_communes":"Paris","code_insee_commune":null}},{"type":"Feature","geometry":{"type":"Point","coordinates":[2.3639265082738348,48.871624306962985]},"properties":{"stationcode":"10014","name":"Marseille - Beaurepaire","is_installed":"OUI","capacity":55,"numdocksavailable":40,"numbikesavailable":12,"mechanical":7,"ebike":5,"is_renting":"OUI","is_returning":"OUI","duedate":"2023-12-05T15:59:32+01:00","nom_arrondissement_communes":"Paris","code_insee_commune":null}},{"type":"Feature","geometry":{"type":"Point","coordinates":[2.233161628246308,48.8415473058801]},"properties":{"stationcode":"21006","name":"Marcelin Berthelot","is_installed":"OUI","capacity":27,"numdocksavailable":24,"numbikesavailable":2,"mechanical":2,"ebike":0,"is_renting":"OUI","is_returning":"OUI","duedate":"2023-12-05T16:07:35+01:00","nom_arrondissement_communes":"Boulogne-Billancourt","code_insee_commune":null}},{"type":"Feature","geometry":{"type":"Point","coordinates":[2.3445770524322067,48.83486054775774]},"properties":{"stationcode":"13002","name":"Arago - Glaci\u00e8re","is_installed":"OUI","capacity":27,"numdocksavailable":23,"numbikesavailable":2,"mechanical":1,"ebike":1,"is_renting":"OUI","is_returning":"OUI","duedate":"2023-12-05T16:05:12+01:00","nom_arrondissement_communes":"Paris","code_insee_commune":null}},{"type":"Feature","geometry":{"type":"Point","coordinates":[2.3723508417606,48.781383825117]},"properties":{"stationcode":"44013","name":"Edouard Tremblay - Julian Grimaux","is_installed":"OUI","capacity":30,"numdocksavailable":21,"numbikesavailable":9,"mechanical":2,"ebike":7,"is_renting":"OUI","is_returning":"OUI","duedate":"2023-12-05T16:00:52+01:00","nom_arrondissement_communes":"Vitry-sur-Seine","code_insee_commune":null}},{"type":"Feature","geometry":{"type":"Point","coordinates":[2.371688821240712,48.86921273836114]},"properties":{"stationcode":"11035","name":"Parmentier - Abel Rabaud","is_installed":"OUI","capacity":52,"numdocksavailable":47,"numbikesavailable":4,"mechanical":0,"ebike":4,"is_renting":"OUI","is_returning":"OUI","duedate":"2023-12-05T15:56:45+01:00","nom_arrondissement_communes":"Paris","code_insee_commune":null}},{"type":"Feature","geometry":{"type":"Point","coordinates":[2.437578141689301,48.857421708072074]},"properties":{"stationcode":"31008","name":"Fran\u00e7ois Debergue - Croix de Chavaux","is_installed":"OUI","capacity":57,"numdocksavailable":53,"numbikesavailable":3,"mechanical":1,"ebike":2,"is_renting":"OUI","is_returning":"OUI","duedate":"2023-12-05T16:05:25+01:00","nom_arrondissement_communes":"Montreuil","code_insee_commune":null}},{"type":"Feature","geometry":{"type":"Point","coordinates":[2.3842826485633855,48.81057120969284]},"properties":{"stationcode":"42010","name":"Mairie d'Ivry-sur-Seine","is_installed":"OUI","capacity":53,"numdocksavailable":1,"numbikesavailable":52,"mechanical":49,"ebike":3,"is_renting":"OUI","is_returning":"OUI","duedate":"2023-12-05T16:05:40+01:00","nom_arrondissement_communes":"Ivry-sur-Seine","code_insee_commune":null}},{"type":"Feature","geometry":{"type":"Point","coordinates":[2.2416052222251897,48.82753962462998]},"properties":{"stationcode":"21015","name":"Nationale - Place Jules Guesde","is_installed":"OUI","capacity":23,"numdocksavailable":15,"numbikesavailable":7,"mechanical":6,"ebike":1,"is_renting":"OUI","is_returning":"OUI","duedate":"2023-12-05T16:07:35+01:00","nom_arrondissement_communes":"Boulogne-Billancourt","code_insee_commune":null}},{"type":"Feature","geometry":{"type":"Point","coordinates":[2.2597770800669053,48.84309486651855]},"properties":{"stationcode":"16040","name":"Exelmans - Michel-Ange","is_installed":"OUI","capacity":33,"numdocksavailable":30,"numbikesavailable":2,"mechanical":0,"ebike":2,"is_renting":"OUI","is_returning":"OUI","duedate":"2023-12-05T15:58:30+01:00","nom_arrondissement_communes":"Paris","code_insee_commune":null}},{"type":"Feature","geometry":{"type":"Point","coordinates":[2.294059172272682,48.84442462786544]},"properties":{"stationcode":"15034","name":"Lakanal - Commerce","is_installed":"OUI","capacity":53,"numdocksavailable":47,"numbikesavailable":6,"mechanical":5,"ebike":1,"is_renting":"OUI","is_returning":"OUI","duedate":"2023-12-05T16:06:38+01:00","nom_arrondissement_communes":"Paris","code_insee_commune":null}},{"type":"Feature","geometry":{"type":"Point","coordinates":[2.260125767248034,48.882976576876565]},"properties":{"stationcode":"22006","name":"Pierret - Madrid","is_installed":"OUI","capacity":28,"numdocksavailable":2,"numbikesavailable":23,"mechanical":21,"ebike":2,"is_renting":"OUI","is_returning":"OUI","duedate":"2023-12-05T16:05:27+01:00","nom_arrondissement_communes":"Neuilly-sur-Seine","code_insee_commune":null}},{"type":"Feature","geometry":{"type":"Point","coordinates":[2.4261841177940373,48.79592939432515]},"properties":{"stationcode":"41404","name":"Carnot - P\u00e2querettes","is_installed":"OUI","capacity":26,"numdocksavailable":9,"numbikesavailable":17,"mechanical":15,"ebike":2,"is_renting":"OUI","is_returning":"OUI","duedate":"2023-12-05T16:07:32+01:00","nom_arrondissement_communes":"Alfortville","code_insee_commune":null}},{"type":"Feature","geometry":{"type":"Point","coordinates":[2.296319,48.8888]},"properties":{"stationcode":"17028","name":"Reims - Raymond Pitet","is_installed":"OUI","capacity":37,"numdocksavailable":14,"numbikesavailable":21,"mechanical":20,"ebike":1,"is_renting":"OUI","is_returning":"OUI","duedate":"2023-12-05T16:06:25+01:00","nom_arrondissement_communes":"Paris","code_insee_commune":null}},{"type":"Feature","geometry":{"type":"Point","coordinates":[2.4630465,48.8436279]},"properties":{"stationcode":"41202","name":"Gare Rer de Fontenay sous Bois","is_installed":"OUI","capacity":61,"numdocksavailable":54,"numbikesavailable":6,"mechanical":4,"ebike":2,"is_renting":"OUI","is_returning":"OUI","duedate":"2023-12-05T16:03:05+01:00","nom_arrondissement_communes":"Fontenay-sous-Bois","code_insee_commune":null}},{"type":"Feature","geometry":{"type":"Point","coordinates":[2.254007756710053,48.819211549234495]},"properties":{"stationcode":"21301","name":"Saint-Vincent - Verdun","is_installed":"OUI","capacity":34,"numdocksavailable":20,"numbikesavailable":14,"mechanical":5,"ebike":9,"is_renting":"OUI","is_returning":"OUI","duedate":"2023-12-05T16:06:43+01:00","nom_arrondissement_communes":"Issy-les-Moulineaux","code_insee_commune":null}},{"type":"Feature","geometry":{"type":"Point","coordinates":[2.3903009,48.8094458]},"properties":{"stationcode":"42021","name":"Raspail - Manufacture des Oeillets","is_installed":"OUI","capacity":32,"numdocksavailable":7,"numbikesavailable":25,"mechanical":22,"ebike":3,"is_renting":"OUI","is_returning":"OUI","duedate":"2023-12-05T16:03:38+01:00","nom_arrondissement_communes":"Ivry-sur-Seine","code_insee_commune":null}},{"type":"Feature","geometry":{"type":"Point","coordinates":[2.321148812770844,48.79387269664978]},"properties":{"stationcode":"42302","name":"Aristide Briand - Gare de Bagneux","is_installed":"OUI","capacity":22,"numdocksavailable":17,"numbikesavailable":5,"mechanical":3,"ebike":2,"is_renting":"OUI","is_returning":"OUI","duedate":"2023-12-05T16:00:57+01:00","nom_arrondissement_communes":"Cachan","code_insee_commune":null}},{"type":"Feature","geometry":{"type":"Point","coordinates":[2.349419631063938,48.86132665908402]},"properties":{"stationcode":"1119","name":"Cossonnerie - S\u00e9bastopol","is_installed":"OUI","capacity":24,"numdocksavailable":12,"numbikesavailable":10,"mechanical":8,"ebike":2,"is_renting":"OUI","is_returning":"OUI","duedate":"2023-12-05T16:05:11+01:00","nom_arrondissement_communes":"Paris","code_insee_commune":null}},{"type":"Feature","geometry":{"type":"Point","coordinates":[2.3865414544355,48.886393679436]},"properties":{"stationcode":"19016","name":"Hautpoul - Jean Jaur\u00e8s","is_installed":"OUI","capacity":32,"numdocksavailable":29,"numbikesavailable":3,"mechanical":1,"ebike":2,"is_renting":"OUI","is_returning":"OUI","duedate":"2023-12-05T16:07:34+01:00","nom_arrondissement_communes":"Paris","code_insee_commune":null}},{"type":"Feature","geometry":{"type":"Point","coordinates":[2.341831654854,48.848191348584]},"properties":{"stationcode":"5106","name":"Cujas - Saint-Michel","is_installed":"OUI","capacity":19,"numdocksavailable":1,"numbikesavailable":18,"mechanical":4,"ebike":14,"is_renting":"OUI","is_returning":"OUI","duedate":"2023-12-05T16:07:09+01:00","nom_arrondissement_communes":"Paris","code_insee_commune":null}},{"type":"Feature","geometry":{"type":"Point","coordinates":[2.3584435880184174,48.909423010092326]},"properties":{"stationcode":"32003","name":"Wilson - M\u00e9tallurgie","is_installed":"OUI","capacity":28,"numdocksavailable":20,"numbikesavailable":5,"mechanical":1,"ebike":4,"is_renting":"OUI","is_returning":"OUI","duedate":"2023-12-05T16:03:57+01:00","nom_arrondissement_communes":"Saint-Denis","code_insee_commune":null}},{"type":"Feature","geometry":{"type":"Point","coordinates":[2.172411,48.892663]},"properties":{"stationcode":"25003","name":"Henri Ste-Claire D\u00e9ville - Paul H\u00e9roult","is_installed":"OUI","capacity":24,"numdocksavailable":20,"numbikesavailable":4,"mechanical":2,"ebike":2,"is_renting":"OUI","is_returning":"OUI","duedate":"2023-12-05T16:01:26+01:00","nom_arrondissement_communes":"Rueil-Malmaison","code_insee_commune":null}},{"type":"Feature","geometry":{"type":"Point","coordinates":[2.3692265531829,48.864660627935]},"properties":{"stationcode":"11042","name":"Grand Prieur\u00e9 - Crussol","is_installed":"OUI","capacity":49,"numdocksavailable":36,"numbikesavailable":12,"mechanical":7,"ebike":5,"is_renting":"OUI","is_returning":"OUI","duedate":"2023-12-05T16:06:11+01:00","nom_arrondissement_communes":"Paris","code_insee_commune":null}},{"type":"Feature","geometry":{"type":"Point","coordinates":[2.4105210229754443,48.86431136000005]},